GPH_code,GPH_name,continent,wikidata,wikidata_alt1,wikidata_alt2,wikidata_alt3,notes,lat,lng
0,League of Nations,World,https://www.wikidata.org/wiki/Q38130,,,,,,
1,United Nations,World,https://www.wikidata.org/wiki/Q1065,,,,,,
2,United States of America,America,http://www.wikidata.org/entity/Q30,,,,,39.828175,-98.5795
3,Alaska,America,http://www.wikidata.org/entity/Q797,,,,,64,-150
4,Hawaii (Sandwich Is.),Oceania,http://www.wikidata.org/entity/Q782,,,,,21.5,-158
5,Virgin Islands (Danish West Indies),America,http://www.wikidata.org/entity/Q11703,https://www.wikidata.org/wiki/Q829655,,,,18.333333,-64.833333
6,Puerto Rico,America,http://www.wikidata.org/entity/Q1183,,,,,18.25,-66.5
7,Texas,America,http://www.wikidata.org/entity/Q1439,,,,,31,-100
10,Greenland,America,http://www.wikidata.org/entity/Q223,,,,,72,-40
11,Faeroe Is.,Europe,http://www.wikidata.org/entity/Q4628,,,,,61.969944444444,-6.8444805555556
20,Canada (Province of Canada),America,http://www.wikidata.org/entity/Q16,https://www.wikidata.org/wiki/Q1121436,,,,56,-109
21,Newfoundland and Labrador (Newfoundland),America,http://www.wikidata.org/entity/Q2003,https://www.wikidata.org/wiki/Q48335,,,,53,-60
30,Bermuda,America,http://www.wikidata.org/entity/Q23635,,,,,32.32,-64.74
31,Bahamas,America,http://www.wikidata.org/entity/Q778,,,,,25,-77.4
40,Cuba,America,http://www.wikidata.org/entity/Q241,,,,,22,-79.5
41,Haiti,America,http://www.wikidata.org/entity/Q790,,,,,19,-72.8
42,Dominican Republic (Santo Domingo),America,http://www.wikidata.org/entity/Q786,,,,,18.8,-70.2
50,West Indies Federation,America,http://www.wikidata.org/entity/Q652560,,,,,10.6833,-61.6333
51,Jamaica,America,http://www.wikidata.org/entity/Q766,,,,,18.18,-77.4
52,Trinidad and Tobago,America,http://www.wikidata.org/entity/Q754,,,,,10.666666666667,-61.516666666667
53,Barbados,America,http://www.wikidata.org/entity/Q244,,,,,13.17,-59.5525
54,Dominica,America,http://www.wikidata.org/entity/Q784,,,,,15.416667,-61.333333
55,Grenada,America,http://www.wikidata.org/entity/Q769,,,,,12.1,-61.7
56,St. Lucia,America,http://www.wikidata.org/entity/Q760,,,,,13.883333333333333,-60.96666666666667
57,St. Vincent and the Grenadines,America,http://www.wikidata.org/entity/Q757,,,,,13.0139,-61.2296
58,Antigua and Barbuda (Antigua),America,http://www.wikidata.org/entity/Q781,https://www.wikidata.org/wiki/Q316390,,,,17.116666666667,-61.85
59,Montserrat,America,http://www.wikidata.org/entity/Q13353,,,,,16.75,-62.2
60,St. Kitts-Nevis,America,http://www.wikidata.org/entity/Q763,,,,,17.27166666666667,-62.666669444444445
65,Guadeloupe,America,http://www.wikidata.org/entity/Q17012,,,,,16.2595,-61.5605
66,Martinique,America,http://www.wikidata.org/entity/Q17054,,,,,14.65,-61.015
68,Netherlands Antilles,America,http://www.wikidata.org/entity/Q25227,,,,,15,-66
70,Mexico,America,http://www.wikidata.org/entity/Q96,,,,,23,-102
80,Belize (British Honduras),America,http://www.wikidata.org/entity/Q242,https://www.wikidata.org/wiki/Q1643555,,,,17.066666666666666,-88.7
89,United States of Central America,America,http://www.wikidata.org/entity/Q190025,,,,,14.616666666667,-90.516666666667
90,Guatemala,America,http://www.wikidata.org/entity/Q774,,,,,15.5,-90.25
91,Honduras,America,http://www.wikidata.org/entity/Q783,,,,,14.633333,-86.816667
92,El Salvador,America,http://www.wikidata.org/entity/Q792,,,,,13.668889,-88.866111
93,Nicaragua,America,http://www.wikidata.org/entity/Q811,,,,,13,-85
94,Costa Rica,America,http://www.wikidata.org/entity/Q800,,,,,10,-84
95,Panama,America,http://www.wikidata.org/entity/Q804,,,,,8.616667,-80.366667
96,Panama Canal Zone,America,http://www.wikidata.org/entity/Q498979,,,,,9.1176694444444,-79.720166666667
100,Colombia (New Granada) (Gran Colombia),America,http://www.wikidata.org/entity/Q739,https://www.wikidata.org/wiki/Q630882,https://www.wikidata.org/wiki/Q199821,,,4,-73.25
101,Venezuela,America,http://www.wikidata.org/entity/Q717,,,,,8,-67
110,Guyana (British Guiana),America,http://www.wikidata.org/entity/Q734,https://www.wikidata.org/wiki/Q918126,,,,5.733333,-59.316667
115,Surinam (Dutch Guiana),America,http://www.wikidata.org/entity/Q730,https://www.wikidata.org/wiki/Q7646305,,,,4,-56
120,French Guiana,America,http://www.wikidata.org/entity/Q3769,,,,,4,-53
130,Ecuador,America,http://www.wikidata.org/entity/Q736,,,,,-1,-78
135,Peru,America,http://www.wikidata.org/entity/Q419,,,,,-9.4,-76
136,Bolivia-Peru Confederation,America,http://www.wikidata.org/entity/Q899706,,,,,,
140,Brazil,America,http://www.wikidata.org/entity/Q155,,,,,-14,-53
145,Bolivia,America,http://www.wikidata.org/entity/Q750,,,,,-17.056869611111,-64.991228611111
150,Paraguay,America,http://www.wikidata.org/entity/Q733,,,,,-23.5,-58
155,Chile,America,http://www.wikidata.org/entity/Q298,,,,,-33,-71
160,Argentina (La Plata),America,http://www.wikidata.org/entity/Q414,https://www.wikidata.org/wiki/Q738144,,,,-34,-64
165,Uruguay,America,http://www.wikidata.org/entity/Q77,,,,,-33,-56
200,United Kingdom,Europe,http://www.wikidata.org/entity/Q145,,,,,54.6,-2
205,Ireland,Europe,http://www.wikidata.org/entity/Q27,,,,,53,-8
210,Netherlands,Europe,http://www.wikidata.org/entity/Q55,,,,,52.316666666667,5.55
211,Belgium,Europe,http://www.wikidata.org/entity/Q31,,,,,50.641111111111,4.6680555555556
212,Luxemburg,Europe,http://www.wikidata.org/entity/Q32,,,,,49.77,6.13
220,France,Europe,http://www.wikidata.org/entity/Q142,,,,,47,2
221,Monaco,Europe,http://www.wikidata.org/entity/Q235,,,,,43.73111111111111,7.42
223,Liechtenstein,Europe,http://www.wikidata.org/entity/Q347,,,,,47.145,9.553889
225,Switzerland,Europe,http://www.wikidata.org/entity/Q39,,,,,46.798562,8.231973
230,Spain,Europe,http://www.wikidata.org/entity/Q29,,,,,40.2,-3.5
231,Gibraltar,Europe,http://www.wikidata.org/entity/Q1410,,,,,36.14,-5.35
232,Andorra,Europe,http://www.wikidata.org/entity/Q228,,,,,42.558333333333,1.5552777777778
235,Portugal,Europe,http://www.wikidata.org/entity/Q45,,,,,38.7,-9.183333333333334
239,Prussia,Europe,http://www.wikidata.org/entity/Q38872,http://www.wikidata.org/entity/Q27306,,,,,
240,Hanover,Europe,http://www.wikidata.org/entity/Q1715,,,,,52.374444444444,9.7386111111111
241,Anhalt Dessau,Europe,http://www.wikidata.org/entity/Q278874,,,,,51.82138,12.24233
242,Anhalt Köthen,Europe,http://www.wikidata.org/entity/Q264970,,,,,51.75,11.966667
243,Anhalt Bernburg,Europe,http://www.wikidata.org/entity/Q686965,,,,,51.793611,11.7425
244,Brunswick,Europe,http://www.wikidata.org/entity/Q326029,,,,,52.269167,10.521111
245,Bavaria,Europe,http://www.wikidata.org/entity/Q980,,,,,49.07861111111111,11.385555555555555
246,Bremen,Europe,http://www.wikidata.org/entity/Q1209,,,,,53.13333333333333,8.733333333333333
247,Frankfurt,Europe,http://www.wikidata.org/entity/Q1794,,,,,50.11055555555556,8.682222222222222
248,Hamburg,Europe,http://www.wikidata.org/entity/Q1055,,,,,53.55,10
249,Saxony Anhalt (Anhalt),Europe,http://www.wikidata.org/entity/Q16550783,http://www.wikidata.org/entity/Q27916627,http://www.wikidata.org/entity/Q1206,,,,
250,Hohenzollern Hechingen,Europe,http://www.wikidata.org/entity/Q673865,,,,,48.35,8.966666666666667
251,Hohenzollern Sigmaringen,Europe,http://www.wikidata.org/entity/Q157013,,,,,48.088055555555556,9.216666666666667
252,Lippe,Europe,http://www.wikidata.org/entity/Q14551680,,,,,51.93609,8.877296
253,Mecklenburg Strelitz,Europe,http://www.wikidata.org/entity/Q161215,,,,,,
254,Nassau,Europe,http://www.wikidata.org/entity/Q836680,,,,,,
255,Germany (Zollverein),Europe,http://www.wikidata.org/entity/Q183,https://www.wikidata.org/wiki/Q155707,,,,51,10
256,Saar,Europe,http://www.wikidata.org/entity/Q1201,,,,,49.37715,6.8783777777778
257,Oldenburg,Europe,http://www.wikidata.org/entity/Q693669,,,,,53.14388888888889,8.213888888888889
258,"Reuss, Older Line",Europe,http://www.wikidata.org/entity/Q531783,,,,,,
259,"Reuss, Younger Line",Europe,http://www.wikidata.org/entity/Q639100,,,,,,
260,German Federal Republic,Europe,http://www.wikidata.org/entity/Q713750,,,,,50.733888888889,7.0997222222222
261,Saxe Weimar Eisenach,Europe,https://www.wikidata.org/wiki/Q155570,,,,,50.983333333333,11.166666666667
262,Saxe Altenburg,Europe,http://www.wikidata.org/entity/Q158151,,,,,50.985,12.433333
263,Saxe Gotha Altenburg,Europe,http://www.wikidata.org/entity/Q675085,,,,,,
264,Saxe Coburg and Gotha,Europe,http://www.wikidata.org/entity/Q3462133,,,,,,
265,German Democratic Republic,Europe,http://www.wikidata.org/entity/Q16957,,,,,52.052,12.389
266,Saxe Meiningen,Europe,http://www.wikidata.org/entity/Q157710,,,,,,
267,Baden,Europe,http://www.wikidata.org/entity/Q186320,,,,,49.01666667,8.4
268,Schwarzburg Sondershausen,Europe,http://www.wikidata.org/entity/Q630163,,,,,51.36666667,10.86666667
269,Saxony,Europe,http://www.wikidata.org/entity/Q1202,,,,,51.026944444444,13.358888888889
270,Schwarzburg Rudolstadt,Europe,http://www.wikidata.org/entity/Q695316,,,,,,
271,Wuerttemberg,Europe,http://www.wikidata.org/entity/Q159631,,,,,,
272,Waldeck and Pyrmont,Europe,http://www.wikidata.org/entity/Q165763,,,,,50.9125,11.782778
273,Hesse Electoral,Europe,http://www.wikidata.org/entity/Q529605,,,,,51.30833333,9.5
274,Schaumburg Lippe,Europe,http://www.wikidata.org/entity/Q310650,,,,,,
275,People’s State of Hesse (Hesse Grand Ducal),Europe,https://www.wikidata.org/wiki/Q694231,http://www.wikidata.org/entity/Q20135,,,,49.86666667,8.65
276,Lübeck,Europe,http://www.wikidata.org/entity/Q2843,,,,,53.869722222222,10.686388888889
277,Hesse Homburg,Europe,https://www.wikidata.org/wiki/Q694269,,,,,,
280,Mecklenburg Schwerin,Europe,http://www.wikidata.org/entity/Q158445,,,,,53.63333333333333,11.416666666666666
281,Mecklenburg,Europe,http://www.wikidata.org/entity/Q109057,,,,,53.83722222222222,11.471111111111112
282,Mecklenburg Vorpommern,Europe,http://www.wikidata.org/entity/Q1196,,,,,53.75,12.5
290,Poland,Europe,http://www.wikidata.org/entity/Q36,,,,,52,19
291,Danzig (Free City of Danzig),Europe,http://www.wikidata.org/entity/Q1792,https://www.wikidata.org/wiki/Q216173,,,,54.3482907,18.6540233
300,Austria-Hungary (Austrian Empire),Europe,https://www.wikidata.org/wiki/Q28513,https://www.wikidata.org/wiki/Q131964,,,,48.2075,16.365
305,Austria,Europe,https://www.wikidata.org/wiki/Q40,,,,,48,14
310,Hungary,Europe,http://www.wikidata.org/entity/Q28,,,,,47,19
315,Czechoslovakia,Europe,http://www.wikidata.org/entity/Q33946,,,,,50.083333333333,14.416666666667
316,Czech Republic,Europe,http://www.wikidata.org/entity/Q213,,,,,50,15
317,Slovakia,Europe,http://www.wikidata.org/entity/Q214,,,,,49,20
324,Kingdom of Sardinia,Europe,http://www.wikidata.org/entity/Q2577303,http://www.wikidata.org/entity/Q165154,,,,,
325,Italy,Europe,http://www.wikidata.org/entity/Q38,,,,,42.5,12.5
326,Trieste,Europe,http://www.wikidata.org/entity/Q546,,,,,45.65027777777778,13.770277777777778
327,Papal States,Europe,http://www.wikidata.org/entity/Q237,,,,,41.904,12.453
328,Vatican City,Europe,http://www.wikidata.org/entity/Q237,,,,,41.904,12.453
329,Two Sicilies,Europe,http://www.wikidata.org/entity/Q180393,,,,,40.83333333,14.25
331,San Marino,Europe,http://www.wikidata.org/entity/Q238,,,,,43.93333333333333,12.466666666666667
332,Modena,Europe,http://www.wikidata.org/entity/Q252580,,,,,,
335,Parma,Europe,http://www.wikidata.org/entity/Q2683,,,,,44.801472222222,10.328
336,Lucca,Europe,http://www.wikidata.org/entity/Q13373,,,,,43.85,10.516666666667
337,Tuscany,Europe,http://www.wikidata.org/entity/Q1273,,,,,43.35,11.016666666667
338,Malta,Europe,http://www.wikidata.org/entity/Q233,,,,,35.88333333333333,14.5
339,Albania,Europe,http://www.wikidata.org/entity/Q222,,,,,41,20
341,Montenegro,Europe,http://www.wikidata.org/entity/Q236,,,,,42.766667,19.216667
342,Kingdom of Serbia,Europe,https://www.wikidata.org/wiki/Q241748,,,,,44.810833333333335,20.4625
343,North Macedonia (Former Yugoslav Republic of Macedonia) (Macedonia),Europe,https://www.wikidata.org/wiki/Q221,http://www.wikidata.org/entity/Q240592,https://www.wikidata.org/wiki/Q7109947,,,41.65,21.716667
344,Croatia,Europe,http://www.wikidata.org/entity/Q224,,,,,45.25,15.466667
345,"Yugoslavia (Kingdom of Serbs, Croats and Slovenes)",Europe,https://www.wikidata.org/wiki/Q36704,https://www.wikidata.org/wiki/Q15102440,,,,44.820555555556,20.462222222222
346,Bosnia-Herzegovina,Europe,http://www.wikidata.org/entity/Q225,,,,,44,18
347,Kosovo,Europe,http://www.wikidata.org/entity/Q1246,,,,,42.55,20.833333333333
348,Serbia (Serbia and Montenegro) (Federal Republic of Yugoslavia),Europe,https://www.wikidata.org/wiki/Q403,https://www.wikidata.org/wiki/Q37024,https://www.wikidata.org/wiki/Q838261,,,43.95,20.933333333333
349,Slovenia,Europe,http://www.wikidata.org/entity/Q215,,,,,46,15
350,Greece,Europe,http://www.wikidata.org/entity/Q41,,,,,38.5,23
351,Crete,Europe,http://www.wikidata.org/entity/Q34374,,,,,35.309722222222,24.893333333333
352,Cyprus,Europe,http://www.wikidata.org/entity/Q229,,,,,35,33
355,Bulgaria,Europe,http://www.wikidata.org/entity/Q219,,,,,42.75,25.5
359,Moldova (Bessarabia) (Moldavian Republic),Europe,http://www.wikidata.org/entity/Q217,https://www.wikidata.org/wiki/Q174994,https://www.wikidata.org/wiki/Q964024,,,47.25,28.516667
360,Romania,Europe,http://www.wikidata.org/entity/Q218,,,,,46,25
365,Russia (USSR),Europe,http://www.wikidata.org/entity/Q159,https://www.wikidata.org/wiki/Q15180,,,,66.41666666666667,94.25
366,Estonia,Europe,http://www.wikidata.org/entity/Q191,,,,,59,26
367,Latvia,Europe,http://www.wikidata.org/entity/Q211,,,,,57,25
368,Lithuania,Europe,http://www.wikidata.org/entity/Q37,,,,,55.2,24
369,Ukraine,Europe,http://www.wikidata.org/entity/Q212,,,,,49,32
370,Belarus (Byelorussia),Europe,http://www.wikidata.org/entity/Q184,,,,,53.528333333333,28.046666666667
371,Armenia,Europe,http://www.wikidata.org/entity/Q399,,,,,40.383333,44.95
372,Georgia,Europe,http://www.wikidata.org/entity/Q230,,,,,42,44
373,Azerbaijan,Europe,http://www.wikidata.org/entity/Q227,,,,,40.3,47.7
374,Transcaucasia,Europe,http://www.wikidata.org/entity/Q330756,,,,,41.75,44.75
375,Finland,Europe,http://www.wikidata.org/entity/Q33,,,,,65,27
376,Chechen-Ingush Republic,Europe,http://www.wikidata.org/entity/Q1148929,,,,,43.31666667,45.68333333
380,Sweden,Europe,http://www.wikidata.org/entity/Q34,,,,,61,15
385,Norway,Europe,http://www.wikidata.org/entity/Q20,,,,,65,11
390,Denmark,Europe,http://www.wikidata.org/entity/Q35,,,,,56,10
395,Iceland,Europe,http://www.wikidata.org/entity/Q189,,,,,65,-19
399,European Union (European Economic Community),Europe,https://www.wikidata.org/wiki/Q458,https://www.wikidata.org/wiki/Q52847,,,,50.116944444444,9.2477777777778
400,Azores (Western Isles),Africa,http://www.wikidata.org/entity/Q25263,,,,,38.624,-28.031
401,Madeira Isles,Africa,http://www.wikidata.org/entity/Q26253,,,,,32.75,-17
402,Cape Verde,Africa,http://www.wikidata.org/entity/Q1011,,,,,15.3,-23.7
403,Sao Tome-Principe,Africa,http://www.wikidata.org/entity/Q1039,,,,,0.316667,6.6
404,Guinea-Bissau (Portuguese Guinea),Africa,http://www.wikidata.org/entity/Q1007,http://www.wikidata.org/entity/Q2002279,,,,12,-15
410,Canary Is.,Africa,http://www.wikidata.org/entity/Q5813,,,,,28,-15.75
411,Equatorial Guinea (Spanish Guinea),Africa,http://www.wikidata.org/entity/Q983,http://www.wikidata.org/entity/Q1232509,,,,1.5,10
412,Río Muni,Africa,http://www.wikidata.org/entity/Q845368,,,,,1.5,10.5
413,Fernando Po (Bioko),Africa,http://www.wikidata.org/entity/Q205022,,,,,3.5,8.7
420,Gambia,Africa,http://www.wikidata.org/entity/Q1005,,,,,13.5,-15.5
430,French West Africa,Africa,http://www.wikidata.org/entity/Q210682,,,,,14.492626,-5.660918
431,Mali Federation,Africa,http://www.wikidata.org/entity/Q216632,,,,,14.459888888888889,-12.206694444444445
432,Mali (French Sudan) (Upper Senegal and Niger),Africa,http://www.wikidata.org/entity/Q912,http://www.wikidata.org/entity/Q508014,http://www.wikidata.org/entity/Q1271523,,,17,-4
433,Senegal,Africa,http://www.wikidata.org/entity/Q1041,,,,,14.366667,-14.283333
434,Benin (Dahomey),Africa,http://www.wikidata.org/entity/Q962,,,,,8.8333333333333,2.1833333333333
435,Mauritania,Africa,http://www.wikidata.org/entity/Q1025,,,,,21,-11
436,Niger,Africa,http://www.wikidata.org/entity/Q1032,,,,,17,10
437,Ivory Coast,Africa,http://www.wikidata.org/entity/Q1008,,,,,8,-6
438,Guinea (French Guinea) (Rivieres du Sud),Africa,http://www.wikidata.org/entity/Q1006,http://www.wikidata.org/entity/Q797433,http://www.wikidata.org/entity/Q4394393,,,10,-11
439,Burkina Faso (Upper Volta),Africa,http://www.wikidata.org/entity/Q965,https://www.wikidata.org/wiki/Q797440,,,,12.266667,-2.066667
450,Liberia,Africa,http://www.wikidata.org/entity/Q1014,,,,,6.533333,-9.75
451,Sierra Leone,Africa,http://www.wikidata.org/entity/Q1044,,,,,8.5,-12.1
452,Ghana (Gold Coast),Africa,http://www.wikidata.org/entity/Q117,https://www.wikidata.org/wiki/Q503623,,,,7.9465,-1.0232
460,German Togoland,Africa,http://www.wikidata.org/entity/Q161062,,,,,6.272,1.187
461,Togo (French Togoland),Africa,http://www.wikidata.org/entity/Q797214,https://www.wikidata.org/wiki/Q797214,,,,,
462,British Togoland,Africa,http://www.wikidata.org/entity/Q797527,,,,,6.39527778,0.47027778
470,Kamerun,Africa,http://www.wikidata.org/entity/Q668294,,,,,4.0369,9.6858
471,Cameroun (French Cameroon),Africa,https://www.wikidata.org/wiki/Q1009,http://www.wikidata.org/entity/Q1028848,,,,5.133333333333334,12.65
472,British Cameroons,Africa,http://www.wikidata.org/entity/Q1028835,,,,,4.166667,9.233333
475,Nigeria,Africa,http://www.wikidata.org/entity/Q1033,,,,,9,8
480,French Equatorial Africa,Africa,http://www.wikidata.org/entity/Q271894,,,,,-4.26666667,15.28333333
481,Gabon,Africa,http://www.wikidata.org/entity/Q1000,,,,,-0.68333055555556,11.5
482,Central African Republic (Ubangi Shari),Africa,http://www.wikidata.org/entity/Q929,https://www.wikidata.org/wiki/Q1421888,,,,6.7,20.9
483,Chad,Africa,http://www.wikidata.org/entity/Q657,,,,,15.466667,19.4
484,Congo (Brazzaville) (French Congo) (Middle Congo),Africa,http://www.wikidata.org/entity/Q971,http://www.wikidata.org/entity/Q265319,,,,-0.75,15.383330555556
490,Democratic Republic of the Congo (Zaire) (Kinshasa) (Belgian Congo) (Congo Free State),Africa,http://www.wikidata.org/entity/Q974,https://www.wikidata.org/wiki/Q213510,https://www.wikidata.org/wiki/Q76048,,,-2.88,23.656111111111112
500,Uganda,Africa,http://www.wikidata.org/entity/Q1036,,,,,1.28,32.39
501,Kenya (British East Africa Protectorate),Africa,http://www.wikidata.org/entity/Q876185,http://www.wikidata.org/entity/Q114,,,,-4.05,39.666666666666664
510,German East Africa,Africa,http://www.wikidata.org/entity/Q153963,,,,,-2.4130555555555557,30.54361111111111
511,Zanzibar,Africa,http://www.wikidata.org/entity/Q1774,,,,,-5.9,39.3
512,Tanzania (Tanganyika),Africa,http://www.wikidata.org/entity/Q924,http://www.wikidata.org/entity/Q431731,,,,-6.3069444444444445,34.85388888888889
515,Ruanda-Urundi,Africa,http://www.wikidata.org/entity/Q590743,,,,,-2.7,29.9
516,Burundi,Africa,http://www.wikidata.org/entity/Q967,,,,,-3.666667,29.816667
517,Rwanda,Africa,http://www.wikidata.org/entity/Q1037,,,,,-2,30
520,Somalia,Africa,http://www.wikidata.org/entity/Q1045,,,,,6,47
521,Somaliland Republic (British Somaliland),Africa,http://www.wikidata.org/entity/Q34754,https://www.wikidata.org/wiki/Q662653,,,,9.8,46.2
522,Djibouti (Afar and Issas) (French Somaliland),Africa,http://www.wikidata.org/entity/Q977,https://www.wikidata.org/wiki/Q1450765,https://www.wikidata.org/wiki/Q333126,,,11.8,42.433333
530,Ethiopia (Abyssinia),Africa,http://www.wikidata.org/entity/Q115,https://www.wikidata.org/wiki/Q207521,,,,9,40
531,Eritrea,Africa,http://www.wikidata.org/entity/Q986,,,,,15.483333,38.25
540,Angola,Africa,http://www.wikidata.org/entity/Q916,,,,,-12.35,17.35
541,Mozambique (Portuguese East Africa),Africa,http://www.wikidata.org/entity/Q1029,https://www.wikidata.org/wiki/Q889394,,,,-19,35
550,Federation of Rhodesia and Nyasaland,Africa,http://www.wikidata.org/entity/Q654342,,,,,-17.863889,31.029722
551,Zambia (Northern Rhodesia),Africa,http://www.wikidata.org/entity/Q953,https://www.wikidata.org/wiki/Q953903,,,,-14,28
552,Zimbabwe (Rhodesia) (Southern Rhodesia),Africa,http://www.wikidata.org/entity/Q954,https://www.wikidata.org/wiki/Q217169,https://www.wikidata.org/wiki/Q750583,,,-19,30
553,Malawi (Nyasaland) (British Central Africa Protectorate),Africa,http://www.wikidata.org/entity/Q1020,https://www.wikidata.org/wiki/Q1649306,https://www.wikidata.org/wiki/Q2642989,,,-13,34
560,South Africa,Africa,http://www.wikidata.org/entity/Q258,,,,,-29,24
561,Cape Colony (Cape of Good Hope),Africa,http://www.wikidata.org/entity/Q370736,,,,,-33,18
562,Natal,Africa,http://www.wikidata.org/entity/Q1301901,,,,,-29.58333333,30.41666667
563,Transvaal (South African Republic),Africa,http://www.wikidata.org/entity/Q190959,https://www.wikidata.org/wiki/Q550374,,,,-25,30
564,Orange Free State (Orange River Colony),Africa,http://www.wikidata.org/entity/Q1142179,http://www.wikidata.org/entity/Q160284,,,,-29.1,26.216666666667
565,Namibia (South West Africa) (German South West Africa),Africa,http://www.wikidata.org/entity/Q1030,http://www.wikidata.org/entity/Q953068,https://www.wikidata.org/wiki/Q153665,,,-23,17
566,Transkei,Africa,http://www.wikidata.org/entity/Q466551,,,,,-31,29
567,Bophuthatswana,Africa,http://www.wikidata.org/entity/Q158236,,,,,-25.8,25.55
568,Venda,Africa,http://www.wikidata.org/entity/Q848668,,,,,-22.95,30.483333333333334
569,Ciskei,Africa,http://www.wikidata.org/entity/Q379042,,,,,-32.849444,27.438056
570,Lesotho (Basutoland),Africa,http://www.wikidata.org/entity/Q2340665,http://www.wikidata.org/entity/Q1013,,,,-29.51666667,27.8
571,Botswana (Bechuanaland),Africa,http://www.wikidata.org/entity/Q963,https://www.wikidata.org/wiki/Q747314,,,,-22.2,23.7
572,Eswatini (Swaziland),Africa,http://www.wikidata.org/entity/Q1050,,,,,-26.483333,31.433333
580,Madagascar (Malagasy Republic),Africa,http://www.wikidata.org/entity/Q1019,https://www.wikidata.org/wiki/Q6740997,,,,-20,47
581,Comoros,Africa,http://www.wikidata.org/entity/Q970,,,,,-12.3,43.7
585,Reunion (Bourbon I.),Africa,http://www.wikidata.org/entity/Q17070,,,,,-21.114444444444,55.5325
590,Mauritius,Africa,http://www.wikidata.org/entity/Q1027,,,,,-20.2,57.5
591,Seychelles,Africa,http://www.wikidata.org/entity/Q1042,,,,,-7.1,52.766667
600,Morocco,Africa,http://www.wikidata.org/entity/Q1028,,,,,32,-6
601,Tangier,Africa,http://www.wikidata.org/entity/Q126148,,,,,35.776666666666664,-5.803888888888888
602,Spanish Morocco,Africa,http://www.wikidata.org/entity/Q457242,,,,,35,-4.5
605,Ifni,Africa,http://www.wikidata.org/entity/Q763141,,,,,29.366666666667,-10.183333333333
609,Sahrawi Arab Democratic Republic (Western Sahara) (Spanish Sahara),Africa,http://www.wikidata.org/entity/Q40362,https://www.wikidata.org/wiki/Q6250,,,,25,-13
610,Spanish West Africa,Africa,http://www.wikidata.org/entity/Q1191986,,,,,,
615,Algeria (Regency of Algiers),Africa,http://www.wikidata.org/entity/Q262,,,,,28,1
616,Tunisia (Regency of Tunis),Africa,http://www.wikidata.org/entity/Q948,,,,,34,10
620,Libya,Africa,http://www.wikidata.org/entity/Q7252591,http://www.wikidata.org/entity/Q1016,,,,,
625,Sudan (Anglo-Egyptian Sudan) (Mahdist State),Africa,https://www.wikidata.org/wiki/Q1049,https://www.wikidata.org/wiki/Q541455,https://www.wikidata.org/wiki/Q3125368,,,15,32
626,South Sudan,Africa,http://www.wikidata.org/entity/Q958,,,,,7,30
630,Iran (Persia),Asia,http://www.wikidata.org/entity/Q794,,,,,32,53
640,Turkey (Ottoman Empire),Asia,http://www.wikidata.org/entity/Q43,https://www.wikidata.org/wiki/Q12560,,,,39,36
645,Iraq (Mesopotamia),Asia,http://www.wikidata.org/entity/Q796,https://www.wikidata.org/wiki/Q146720,,,,33,43
651,Egypt Arab Republic (Egypt),Africa,http://www.wikidata.org/entity/Q79,,,,,27,29
652,Syria,Asia,http://www.wikidata.org/entity/Q858,,,,,35.216667,38.583333
660,Lebanon,Asia,http://www.wikidata.org/entity/Q822,,,,,33.833333,35.766667
663,Jordan (Transjordan),Asia,http://www.wikidata.org/entity/Q1121819,http://www.wikidata.org/entity/Q810,,,,31.9575,35.9475
665,Palestine,Asia,http://www.wikidata.org/entity/Q219060,,,,,32,35.25
666,Israel,Asia,http://www.wikidata.org/entity/Q801,,,,,31,35
670,Saudi Arabia (Emirate of Nejd) (Emirate of Diriyah),Asia,http://www.wikidata.org/entity/Q851,https://www.wikidata.org/wiki/Q146862,https://www.wikidata.org/wiki/Q146871,,,23.716667,44.116667
671,Hejaz Sultanate,Asia,http://www.wikidata.org/entity/Q956357,,,,,21.4225,39.82611111
672,Asir,Asia,http://www.wikidata.org/entity/Q779855,http://www.wikidata.org/entity/Q1656908,,,,19,43
673,Al Hasa,Asia,http://www.wikidata.org/entity/Q4702167,,,,,25.383333333333,49.6
674,Jabal Shammar,Asia,http://www.wikidata.org/entity/Q5362837,,,,,27.516667,41.683333
678,Yemen Arab Republic (North Yemen) (Kingdom of Yemen),Asia,http://www.wikidata.org/entity/Q1998401,http://www.wikidata.org/entity/Q580188,http://www.wikidata.org/entity/Q267584,,,15.354722222222,44.206666666667
679,Yemen,Asia,http://www.wikidata.org/entity/Q199841,,,,,12.8,45.033333333333
680,Yemen People's Republic (South Yemen),Asia,http://www.wikidata.org/entity/Q199841,,,,,12.8,45.033333333333
681,Aden,Asia,http://www.wikidata.org/entity/Q131694,,,,,12.8,45.033333333333
682,Aden Protectorate,Asia,http://www.wikidata.org/entity/Q1865132,,,,,,
690,Kuwait,Asia,http://www.wikidata.org/entity/Q817,,,,,29.166667,47.6
692,Bahrain,Asia,http://www.wikidata.org/entity/Q398,,,,,26.0675,50.551111
694,Qatar,Asia,http://www.wikidata.org/entity/Q846,,,,,25.269535,51.212767
696,United Arab Emirates (Trucial Oman),Asia,http://www.wikidata.org/entity/Q1852345,https://www.wikidata.org/wiki/Q1852345,,,,23.783333333333,54
698,Oman (Sultanate of Muscat and Oman),Asia,http://www.wikidata.org/entity/Q842,https://www.wikidata.org/wiki/Q157734,,,,21,57
700,Afghanistan,Asia,http://www.wikidata.org/entity/Q889,,,,,33,66
701,Turkmenistan,Asia,http://www.wikidata.org/entity/Q874,,,,,39,60
702,Tajikistan,Asia,http://www.wikidata.org/entity/Q863,,,,,38.583333,71.366667
703,Kyrgyzstan,Asia,http://www.wikidata.org/entity/Q813,,,,,41,75
704,Uzbekistan,Asia,http://www.wikidata.org/entity/Q265,,,,,41,66
705,Kazakhstan,Asia,http://www.wikidata.org/entity/Q232,,,,,48,68
710,People's Republic of China (China),Asia,http://www.wikidata.org/entity/Q148,,,,,35.844722222222224,103.45194444444445
711,Manchukuo,Asia,http://www.wikidata.org/entity/Q30623,,,,,43.883333333333,125.31666666667
712,Mongolia,Asia,http://www.wikidata.org/entity/Q711,,,,,46,105
713,Republic of China (Taiwan) (Formosa),Asia,http://www.wikidata.org/entity/Q865,,,,,24,121
720,Hong Kong,Asia,http://www.wikidata.org/entity/Q8646,,,,,22.278333333333,114.15861111111
721,Macao,Asia,http://www.wikidata.org/entity/Q14773,,,,,22.19,113.53805555555556
730,Korea (Chosen),Asia,http://www.wikidata.org/entity/Q28179,http://www.wikidata.org/entity/Q503585,,,,37.58,126.9775
731,North Korea (Democratic People's Republic of Korea),Asia,http://www.wikidata.org/entity/Q423,,,,,40,127
732,South Korea (Republic of South Korea),Asia,http://www.wikidata.org/entity/Q884,,,,,36,128
735,Far Eastern Republic,Asia,http://www.wikidata.org/entity/Q61292,,,,,51.83333333,107.6
740,Japan,Asia,http://www.wikidata.org/entity/Q17,,,,,35,136
741,Ryukyu Is.,Asia,http://www.wikidata.org/entity/Q10905515,,,,,26.5,127.9
750,India,Asia,http://www.wikidata.org/entity/Q668,,,,,22.8,83
751,French India,Asia,http://www.wikidata.org/entity/Q646374,,,,,,
752,Portuguese India,Asia,http://www.wikidata.org/entity/Q323904,,,,,2.1888888888888887,102.38444444444445
760,Bhutan,Asia,http://www.wikidata.org/entity/Q917,,,,,27.45,90.5
761,Sikkim,Asia,http://www.wikidata.org/entity/Q3960459,http://www.wikidata.org/entity/Q1505,,,,27.55,88.5
770,Pakistan,Asia,http://www.wikidata.org/entity/Q843,,,,,30,71
771,Bangladesh,Asia,http://www.wikidata.org/entity/Q902,,,,,24.016666666666666,89.86666666666666
775,Myanmar (Burma),Asia,http://www.wikidata.org/entity/Q836,,,,,22,96
780,Sri Lanka (Ceylon),Asia,http://www.wikidata.org/entity/Q854,,,,,7,81
781,Maldive Islands,Asia,http://www.wikidata.org/entity/Q17044696,,,,,,
790,Nepal,Asia,http://www.wikidata.org/entity/Q837,,,,,28,84
800,Thailand (Siam),Asia,http://www.wikidata.org/entity/Q869,,,,,14,101
810,French Indochina,Asia,http://www.wikidata.org/entity/Q185682,,,,,21.033333333333,105.85
811,Cambodia (Kampuchea),Asia,http://www.wikidata.org/entity/Q424,,,,,12.5,105
812,Laos,Asia,http://www.wikidata.org/entity/Q819,,,,,18.2,104.1
815,Vietnam,Asia,http://www.wikidata.org/entity/Q881,,,,,16,108
816,"Vietnam, Democratic Rep.",Asia,http://www.wikidata.org/entity/Q172640,,,,,21.033333,105.85
817,Republic of Vietnam,Asia,http://www.wikidata.org/entity/Q180573,,,,,10.776944444444444,106.69527777777778
820,Malaysia (British Malaya),Asia,http://www.wikidata.org/entity/Q833,https://www.wikidata.org/wiki/Q871091,,,,3.7805111,102.31436166666667
821,Federated Malay States,Asia,http://www.wikidata.org/entity/Q1400154,,,,,3.1597222222222,101.7
823,Sabah (North Borneo),Asia,http://www.wikidata.org/entity/Q179029,https://www.wikidata.org/wiki/Q1147441,,,,5.25,117
824,Sarawak,Asia,http://www.wikidata.org/entity/Q170462,,,,,2.5,113
827,Straits Settlements,Asia,http://www.wikidata.org/entity/Q376178,,,,,1.3666666666667,103.8
830,Singapore,Asia,http://www.wikidata.org/entity/Q334,,,,,1.3,103.8
835,Brunei,Asia,http://www.wikidata.org/entity/Q921,,,,,4.4,114.566667
840,Philippines,Asia,http://www.wikidata.org/entity/Q928,,,,,12,123
850,Indonesia (Dutch East Indies),Asia,https://www.wikidata.org/wiki/Q252,http://www.wikidata.org/entity/Q188161,,,,-2,118
851,West Irian (Dutch New Guinea),Asia,https://www.wikidata.org/wiki/Q3845,http://www.wikidata.org/entity/Q941881,,,,-5,136
860,East Timor (Portuguese Timor),Asia,http://www.wikidata.org/entity/Q142965,https://www.wikidata.org/wiki/Q142965,,,,-8.554722222222223,125.57861111111112
900,Australia,Oceania,http://www.wikidata.org/entity/Q408,,,,,-25,133
901,New South Wales,Oceania,http://www.wikidata.org/entity/Q3224,,,,,-32,147
902,Western Australia,Oceania,http://www.wikidata.org/entity/Q3206,,,,,-26,121
903,South Australia,Oceania,http://www.wikidata.org/entity/Q35715,,,,,-30,135
904,Victoria,Oceania,http://www.wikidata.org/entity/Q36687,,,,,-36.854166666666664,144.2811111111111
905,Queensland,Oceania,http://www.wikidata.org/entity/Q36074,,,,,-20,143
906,Tasmania,Oceania,http://www.wikidata.org/entity/Q34366,,,,,-42,147
910,Papua New Guinea,Oceania,http://www.wikidata.org/entity/Q691,,,,,-6.3,147
911,Papua (British New Guinea),Oceania,http://www.wikidata.org/entity/Q5095,https://www.wikidata.org/wiki/Q2645837,,,,-2.5,138.5
912,New Guinea (German New Guinea) (Kaiser Wilhelmsland),Oceania,https://www.wikidata.org/wiki/Q1443945,http://www.wikidata.org/entity/Q165008,http://www.wikidata.org/entity/Q691017,,,-5,145
920,New Zealand,Oceania,http://www.wikidata.org/entity/Q664,,,,,-41.2,174
925,Cook Is.,Oceania,http://www.wikidata.org/entity/Q26988,,,,,-21.233333333333334,-159.78333333333333
930,New Caledonia,Oceania,http://www.wikidata.org/entity/Q33788,,,,,-21.25,165.3
935,Vanuatu (New Hebrides),Oceania,http://www.wikidata.org/entity/Q752431,https://www.wikidata.org/wiki/Q752431,,,,-16.633333333333,168.01666666667
940,Solomon Islands (British Solomon Islands Protectorate),Oceania,http://www.wikidata.org/entity/Q685,https://www.wikidata.org/wiki/Q13410267,,,,-9.4666666666667,159.81666666667
945,Gilbert and Ellice Is.,Oceania,http://www.wikidata.org/entity/Q1050859,,,,,1.26,173.02
946,Kiribati,Oceania,http://www.wikidata.org/entity/Q710,,,,,1.4666666666667,173.03333333333
947,Tuvalu,Oceania,http://www.wikidata.org/entity/Q672,,,,,-7.475,178.005556
950,Fiji,Oceania,http://www.wikidata.org/entity/Q712,,,,,-18,178
955,Tonga (Haʻapai),Oceania,http://www.wikidata.org/entity/Q678,https://www.wikidata.org/wiki/Q612098,,,,-20.587778,-174.810278
960,French Polynesia,Oceania,http://www.wikidata.org/entity/Q30971,,,,,-17.533333333333335,-149.56666666666666
970,Nauru,Oceania,http://www.wikidata.org/entity/Q697,,,,,-0.5275,166.935
980,U. S. Pacific Trust Territories (South Seas Mandate),Oceania,http://www.wikidata.org/entity/Q129237,https://www.wikidata.org/wiki/Q718763,,,,10.5,152
983,Marshall Is.,Oceania,http://www.wikidata.org/entity/Q709,,,,,9.82,169.29
984,Northern Marianas Is.,Oceania,http://www.wikidata.org/entity/Q16644,,,,,16.705,145.78
985,Guam,Oceania,http://www.wikidata.org/entity/Q16635,,,,,13.5,144.8
986,Palau,Oceania,http://www.wikidata.org/entity/Q695,,,,,7.466667,134.55
987,Federated States of Micronesia,Oceania,http://www.wikidata.org/entity/Q702,,,,,6.9166666666667,158.18333333333
990,Samoa (Western Samoa) (German Samoa),Oceania,http://www.wikidata.org/entity/Q683,https://www.wikidata.org/wiki/Q701025,,,,-13.745,-172.2175
991,American Samoa,Oceania,http://www.wikidata.org/entity/Q16641,,,,,-14.295833,-170.7075
1001,States of America,America,http://www.wikidata.org/entity/Q214102,,,,,,
1002,Confederate States of America,America,http://www.wikidata.org/entity/Q81931,,,,,,
1003,Attu and Kiska,America,http://www.wikidata.org/entity/Q119285,,,,,52,-174
1004,North Carolina,America,http://www.wikidata.org/entity/Q1454,,,,,35.5,-80
1005,Virginia,America,http://www.wikidata.org/entity/Q1370,,,,,37.5,-79
1006,Tennessee,America,http://www.wikidata.org/entity/Q1509,,,,,36,-86
1007,Arkansas,America,http://www.wikidata.org/entity/Q1612,,,,,34.8,-92.2
1008,Florida,America,http://www.wikidata.org/entity/Q812,,,,,28.133333333333,-81.631666666667
1009,South Carolina (Palmetto Republic),America,http://www.wikidata.org/entity/Q7566712,http://www.wikidata.org/entity/Q1456,,,,34,-81
1010,Georgia (U.S.),America,http://www.wikidata.org/entity/Q1428,,,,,33,-83.5
1011,Alabama,America,http://www.wikidata.org/entity/Q173,,,,,32.7,-86.7
1012,Mississippi,America,http://www.wikidata.org/entity/Q1494,,,,,33,-90
1013,Louisiana,America,http://www.wikidata.org/entity/Q1588,,,,,31,-92
1014,California (Great Bear Republic),America,http://www.wikidata.org/entity/Q17557,https://www.wikidata.org/wiki/Q17557,,,,38.29388888888889,-122.45611111111111
1015,Cherokee,America,http://www.wikidata.org/entity/Q14708404,,,,,35.85222222,-94.99077778
1016,Oregon (Oregon Country),America,https://www.wikidata.org/wiki/Q824,https://www.wikidata.org/wiki/Q388164,,,,43.935833333333335,-120.575
1017,Eastern Greenland,America,http://www.wikidata.org/entity/Q14205239,,,,,66.7,-36.5
1018,U.S. Leased Bases in Newfoundland,America,http://www.wikidata.org/entity/Q5393217,,,,,48.54388889,-58.55333333
1019,Rupert's Land,America,http://www.wikidata.org/entity/Q738395,,,,,57,-92.3
1020,San Juan Island,America,http://www.wikidata.org/entity/Q1935888,,,,,48.5333,-123.083
1021,Cape Breton I.,America,http://www.wikidata.org/entity/Q188489,,,,,46.295,-60.67
1022,Nova Scotia,America,http://www.wikidata.org/entity/Q1952,,,,,45,-63
1023,New Brunswick,America,http://www.wikidata.org/entity/Q1965,,,,,46.6,-66
1024,Prince Edward Is.,America,http://www.wikidata.org/entity/Q1979,,,,,,
1025,Quebec (Lower Canada),America,http://www.wikidata.org/entity/Q176,https://www.wikidata.org/wiki/Q1134180,,,,52,-72
1026,Ontario (Upper Canada),America,http://www.wikidata.org/entity/Q1904,https://www.wikidata.org/wiki/Q795427,,,,50,-85
1027,British Columbia,America,http://www.wikidata.org/entity/Q1974,,,,,,
1028,Vancouver,America,http://www.wikidata.org/entity/Q24639,,,,,49.26083333333333,-123.1138888888889
1029,St. Pierre and Miquelon,America,http://www.wikidata.org/entity/Q34617,,,,,46.85,-56.3
1030,U.S. Leased Bases in Bermuda,America,http://www.wikidata.org/entity/Q23635,,,,,32.32,-64.74
1031,Mayaguana,America,http://www.wikidata.org/entity/Q1540098,,,,,22.375833333333,-72.908333333333
1032,Turks and Caicos Is.,America,http://www.wikidata.org/entity/Q18221,,,,,21.78,-71.8
1033,Cayman Is.,America,http://www.wikidata.org/entity/Q5785,,,,,19.5,-80.5
1040,Guantanamo,America,http://www.wikidata.org/entity/Q208035,http://www.wikidata.org/entity/Q115319,,,,19.925,-75.15
1041,North Haiti,America,http://www.wikidata.org/entity/Q1472105,http://www.wikidata.org/entity/Q943932,,,,,
1044,Navassa I.,America,http://www.wikidata.org/entity/Q25359,,,,,18.4027,-75.0126
1048,Trinidad,America,https://www.wikidata.org/wiki/Q128323,,,,,10.460555555556,-61.248611111111
1049,Tobago,America,http://www.wikidata.org/entity/Q185111,,,,,11.25,-60.667
1051,U.S. Leased Bases in Jamaica,America,http://www.wikidata.org/entity/Q7921943,,,,,17.89076389,-77.30213333
1052,U.S. Leased Bases in Trinidad,America,http://www.wikidata.org/entity/Q844799,,,,,10.383333333333,-62.35
1053,Morant Cays,America,https://www.wikidata.org/wiki/Q1628679,,,,,17.4,-75.98333333
1054,Pedro Bank,America,https://www.wikidata.org/wiki/Q935940,,,,,17.1,-77.45
1055,Windward Is.,America,http://www.wikidata.org/entity/Q2660774,,,,,13.25,-61.2
1056,Gros Islet Bay,America,http://www.wikidata.org/entity/Q953557,,,,,14.066666666667,-60.933333333333
1058,Barbuda,America,http://www.wikidata.org/entity/Q238752,,,,,17.64,-61.81
1059,U.S. Leased Bases in Antigua,America,http://www.wikidata.org/entity/Q316390,,,,,17.085,-61.8
1061,British Virgin Is.,America,http://www.wikidata.org/entity/Q25305,,,,,18.445,-64.54
1062,Anguilla,America,http://www.wikidata.org/entity/Q25228,,,,,18.227222222222,-63.048888888889
1063,Leeward Is.,America,http://www.wikidata.org/entity/Q1796551,,,,,17.083333333333332,-61.8
1064,St. Barthelemy,America,http://www.wikidata.org/entity/Q25362,,,,,17.897728,-62.8342438
1065,Curacao,America,http://www.wikidata.org/entity/Q25279,,,,,12.2,-69
1066,Bonaire,America,http://www.wikidata.org/entity/Q25396,,,,,12.1796,-68.2581
1067,Saba,America,http://www.wikidata.org/entity/Q25528,,,,,17.6325,-63.2375
1068,Sint Eustatius,America,http://www.wikidata.org/entity/Q26180,,,,,17.483333333333,-62.966666666667
1069,Aruba,America,http://www.wikidata.org/entity/Q21203,,,,,12.51106253,-69.97422388
1070,Viceroyalty of New Spain,America,http://www.wikidata.org/entity/Q170603,,,,,19.43333333,-99.13333333
1071,Yucatan,America,http://www.wikidata.org/entity/Q60176,,,,,21,-89.6
1072,Revillagigedo Is,America,http://www.wikidata.org/entity/Q849318,,,,,18.82138888888889,-112.76388888888889
1073,Sint Maarten,America,http://www.wikidata.org/entity/Q26273,,,,,18.031944444444,-63.067777777778
1074,Dutch Windward Is.,America,http://www.wikidata.org/entity/Q3277444,,,,,18.0167,-63.0333
1075,St. Kitts,America,http://www.wikidata.org/entity/Q204989,,,,,17.319722,-62.747222
1076,Nevis,America,http://www.wikidata.org/entity/Q207794,,,,,17.15,-62.583333333333
1077,St. Martin,America,http://www.wikidata.org/entity/Q126125,,,,,18.075277777778,-63.06
1081,Mosquito Coast,America,http://www.wikidata.org/entity/Q1165546,,,,,13.455505555555556,-84.8114638888889
1082,Bay Is.,America,http://www.wikidata.org/entity/Q3593570,,,,,16.333333333333,-86.5
1087,Swan Is.,America,http://www.wikidata.org/entity/Q1547671,,,,,17.410555555556,-83.921944444444
1088,Corn Is.,America,http://www.wikidata.org/entity/Q21111,,,,,12.17465,-83.060375
1094,Cocos I.,America,http://www.wikidata.org/entity/Q215081,,,,,5.5280555555556,-87.061111111111
1097,Panama Canal Operating Area,America,http://www.wikidata.org/entity/Q498979,,,,,9.1176694444444,-79.720166666667
1101,Quita Sueno Bank,America,http://www.wikidata.org/entity/Q559484,,,,,14.316666666667,-81.166666666667
1102,Roncador Cay,America,http://www.wikidata.org/entity/Q950869,,,,,13.533333333333,-80.05
1103,Serrana Bank,America,http://www.wikidata.org/entity/Q1814365,,,,,14.333333333333,-80.333333333333
1104,Serranilla Bank,America,http://www.wikidata.org/entity/Q1169008,,,,,15.833333333333,-79.833333333333
1105,San Andres and Providincial Is.,America,http://www.wikidata.org/entity/Q26855,,,,,14.383333333333333,-80.28333333333333
1106,Malpelo I.,America,http://www.wikidata.org/entity/Q750683,,,,,4.0027777777778,-81.608888888889
1111,Aves I.,America,http://www.wikidata.org/entity/Q790669,,,,,15.668611111111112,-63.61805555555556
1112,U.S. Leased Bases in Br. Guiana,America,http://www.wikidata.org/entity/Q1333912,,,,,6.4983333333333,-58.253888888889
1113,Demerara and Essequibo,America,http://www.wikidata.org/entity/Q5255160,,,,,6.8121,-58.1701
1114,Berbice,America,http://www.wikidata.org/entity/Q675322,,,,,6.23369,-57.543
1135,Viceroyalty of Peru,America,http://www.wikidata.org/entity/Q211435,,,,,-12.06,-77.0375
1150,Free Surinam,America,,,,,,,
1151,Easter I.,America,http://www.wikidata.org/entity/Q14452,,,,,-27.12,-109.35
1152,Juan Fernandez I.,America,http://www.wikidata.org/entity/Q156325,,,,,-33.641388888889,-78.841111111111
1153,Desventuradas Is. (San Felix and San Ambrosio),America,http://www.wikidata.org/entity/Q1160526,,,,,-26.32,-80
1154,Sala y Gomez,America,http://www.wikidata.org/entity/Q118821,,,,,-26.4721,-105.36257
1156,Araucania,America,http://www.wikidata.org/entity/Q2176,,,,,-38.9,-72.666666666667
1160,Río de la Plata United Provinces,America,https://www.wikidata.org/wiki/Q738144,,,,,-34.666667,-58.4
1161,Buenos Aires,America,http://www.wikidata.org/entity/Q1486,,,,,-34.599722222222,-58.381944444444
1162,Cordoba,America,http://www.wikidata.org/entity/Q44210,,,,,-31.416666666667,-64.183333333333
1163,Falkland Is.,America,http://www.wikidata.org/entity/Q9648,,,,,-51.73,-59.22
1164,South Georgia,America,http://www.wikidata.org/entity/Q1137202,,,,,-54.316666666667,-36.65
1165,South Georgia and South Sandwich Is.,America,http://www.wikidata.org/entity/Q35086,,,,,-54.25,-36.75
1166,San Juan,America,http://www.wikidata.org/entity/Q44805,,,,,-30.87,-68.98
1167,Corrientes,America,http://www.wikidata.org/entity/Q44758,,,,,-28.66,-57.63
1168,Martin Garcia I.,America,http://www.wikidata.org/entity/Q719903,,,,,-34.1825,-58.25
1201,Inini,America,http://www.wikidata.org/entity/Q1663537,,,,,3,-53
1301,Galapagos Is.,America,http://www.wikidata.org/entity/Q38095,,,,,-0.66666666666667,-90.55
1352,Chincha Is.,America,http://www.wikidata.org/entity/Q1073664,,,,,-13.64,-76.4
1401,Rio Grande do Sul,America,http://www.wikidata.org/entity/Q40030,,,,,-29.75,-53.15
1402,Juliana Republic,America,http://www.wikidata.org/entity/Q2413855,,,,,-28.4667,-48.7667
1407,Acre,America,http://www.wikidata.org/entity/Q40780,,,,,-9.033333333333333,-70.51666666666667
1408,St. Paul's Rocks,America,http://www.wikidata.org/entity/Q241357,,,,,0.91694444444444,-29.345833333333
1409,Trindade Island,America,http://www.wikidata.org/entity/Q241478,,,,,-20.516666666667,-29.083333333333
2001,Rockall I.,Europe,http://www.wikidata.org/entity/Q206137,,,,,57.596277777778,-13.687305555556
2002,Lundy,Europe,http://www.wikidata.org/entity/Q324812,,,,,51.18,-4.67
2003,Channel Is.,Europe,https://www.wikidata.org/wiki/Q42314,,,,,49.43,-2.35
2004,Isle of Man,Europe,https://www.wikidata.org/wiki/Q9676,,,,,54.235,-4.525
2051,UK Bases in Ireland,Europe,http://www.wikidata.org/entity/Q2450821,,,,,,
2101,Limburg,Europe,https://www.wikidata.org/wiki/Q376009,,,,,50.61666666666667,5.933333333333334
2111,Moresnet,Europe,http://www.wikidata.org/entity/Q151938,,,,,50.730277777778,6.0133333333333
2201,Alsace Lorraine,Europe,http://www.wikidata.org/entity/Q155144,,,,,48.67,7
2221,Roquebrune and Menton,Europe,http://www.wikidata.org/entity/Q3559284,,,,,,
2246,Saxe Lauenburg,Europe,https://www.wikidata.org/wiki/Q313175,,,,,,
2247,Schleswig,Europe,http://www.wikidata.org/entity/Q26167,,,,,55.166666666667,9.25
2248,Holstein,Europe,http://www.wikidata.org/entity/Q111224,,,,,54.1667,9.66667
2249,Heligoland,Europe,http://www.wikidata.org/entity/Q3038,,,,,54.1825,7.8852777777778
2251,Neuchatel,Europe,http://www.wikidata.org/entity/Q12738,,,,,46.983333333333,6.7833333333333
2311,Spain-Gibraltar Neutral Zone,Europe,http://www.wikidata.org/entity/Q2473841,,,,,36.154933,-5.348363
2333,Ile des Faisans,Europe,http://www.wikidata.org/entity/Q373767,,,,,43.342778,-1.7655
2390,Posen-West Prussia,Europe,https://www.wikidata.org/wiki/Q693438,,,,,,
2481,Bergedorf,Europe,http://www.wikidata.org/entity/Q1637,,,,,53.487222222222,10.210277777778
2482,Schleswig Plebiscite Zone,Europe,http://www.wikidata.org/entity/Q692146,,,,,,
2551,Allenstein Plebiscite Zone,Europe,http://www.wikidata.org/entity/Q574321,,,,,,
2552,Marienwerder Plebiscite Zone,Europe,http://www.wikidata.org/entity/Q479818,,,,,,
2553,Silesia Plebiscite Zone,Europe,http://www.wikidata.org/entity/Q574321,,,,,,
2554,Brandenburg,Europe,http://www.wikidata.org/entity/Q1208,,,,,52.394555555555556,13.060333333333332
2555,Schleswig-Holstein,Europe,http://www.wikidata.org/entity/Q1194,,,,,54.470038,9.51416
2556,Rhineland,Europe,http://www.wikidata.org/entity/Q152243,,,,,50.276989,6.860735
2557,Ruhr,Europe,http://www.wikidata.org/entity/Q151993,,,,,51.5,7.5
2558,Thuringia,Europe,http://www.wikidata.org/entity/Q1205,,,,,51,11
2601,Berlin (West Berlin),Europe,https://www.wikidata.org/wiki/Q64,http://www.wikidata.org/entity/Q56036,,,,52.516666666667,13.383333333333
2602,Hesse,Europe,http://www.wikidata.org/entity/Q1199,,,,,50.60802777777778,9.028472222222222
2603,Lower Saxony,Europe,http://www.wikidata.org/entity/Q1197,,,,,52.756111111111,9.3930555555556
2604,North Rhine Westphalia,Europe,http://www.wikidata.org/entity/Q1198,,,,,51.466666666667,7.55
2605,Rhineland Palatinate,Europe,http://www.wikidata.org/entity/Q1200,,,,,49.913056,7.449722
2606,Baden Wuerttemberg,Europe,http://www.wikidata.org/entity/Q985,,,,,48.537777777778,9.0411111111111
2661,Saxe Hildburghausen,Europe,http://www.wikidata.org/entity/Q281005,,,,,,
2901,Congress Poland,Europe,https://www.wikidata.org/wiki/Q221457,,,,,52.233333,21.016667
2902,Province of Posen (Grand Duchy of Posen),Europe,https://www.wikidata.org/wiki/Q635253,https://www.wikidata.org/wiki/Q1783098,,,,52.4,16.91666667
2903,Cracow (Free City of Cracow),Europe,http://www.wikidata.org/entity/Q31487,https://www.wikidata.org/wiki/Q501303,,,,50.061388888889,19.937222222222
3001,Galicia (Kingdom of Galicia and Lodomeria),Europe,https://www.wikidata.org/wiki/Q180086,https://www.wikidata.org/wiki/Q2396442,,,,49.83,24.01416666667
3051,Klagenfurt Plebiscite Zone,Europe,http://www.wikidata.org/entity/Q692136,,,,,46.6325,14.6187
3052,Vorarlberg,Europe,http://www.wikidata.org/entity/Q38981,,,,,47.243611111111,9.8938888888889
3053,Tyrol,Europe,http://www.wikidata.org/entity/Q42880,,,,,47.266666666667,11.4
3150,Bohemia,Europe,https://www.wikidata.org/wiki/Q39193,,,,,49.833333333333,14.333333333333
3151,Moravia,Europe,https://www.wikidata.org/wiki/Q43266,,,,,49.5,17
3152,Czech Silesia,Europe,https://www.wikidata.org/wiki/Q45551,,,,,49.933333333333,17.783333333333
3153,Carpathian Ruthenia,Europe,https://www.wikidata.org/wiki/Q1148511,,,,,48.333333333333,23.233333333333
3154,Carpatho-Ukraine,Europe,http://www.wikidata.org/entity/Q950644,,,,,48.43333333333333,23.066666666666666
3253,Milan,Europe,http://www.wikidata.org/entity/Q490,,,,,45.466944444444,9.19
3261,Republic of St. Mark,Europe,http://www.wikidata.org/entity/Q4948,,,,,45.583,12.683
3262,Lombardy-Venetia,Europe,https://www.wikidata.org/wiki/Q209857,,,,,,
3271,Ancona,Europe,http://www.wikidata.org/entity/Q3415,,,,,43.616666666667,13.516666666667
3291,Sicily,Europe,http://www.wikidata.org/entity/Q1460,,,,,37.599958333333,14.015377777778
3326,Venezia-Giulia,Europe,http://www.wikidata.org/entity/Q306696,,,,,45.633333333333,13.8
3327,"S.M.O.M. (Sovereign & Military Order of Jerusalem, Rhodes and Malta)",Europe,http://www.wikidata.org/entity/Q190353,,,,,41.90541,12.48061
3340,Scutari,Europe,http://www.wikidata.org/entity/Q653394,,,,,42.066666666667,19.5
3341,Saseno,Europe,http://www.wikidata.org/entity/Q733645,,,,,40.5,19.283333333333
3343,Fiume,Europe,http://www.wikidata.org/entity/Q1647,,,,,45.333333333333336,14.433333333333334
3346,Zadar (Zara),Europe,http://www.wikidata.org/entity/Q3370,,,,,44.117,15.2355
3349,Ionian Is.,Europe,http://www.wikidata.org/entity/Q170295,,,,,37.8,20.7
3351,Corfu,Europe,http://www.wikidata.org/entity/Q121378,,,,,39.6,19.87
3352,Turkish Republic of Northern Cyprus,Europe,http://www.wikidata.org/entity/Q23681,,,,,35.1816,33.3634
3353,Dodecanese Is. (Aegean Is.),Europe,http://www.wikidata.org/entity/Q131555,,,,,36.45,27.3
3354,Janina,Europe,http://www.wikidata.org/entity/Q183199,,,,,39.66361111111111,20.852222222222224
3355,Akrotiri and Dhekelia (British Bases in Cyprus),Europe,http://www.wikidata.org/entity/Q37362,,,,,34.583333333333,32.983333333333
3356,Castellorizo,Europe,http://www.wikidata.org/entity/Q212096,,,,,36.145,29.585
3361,Moldavia,Europe,http://www.wikidata.org/entity/Q217,,,,,47.25,28.516667
3362,Wallachia,Europe,http://www.wikidata.org/entity/Q171393,,,,,44.43,26.1
3363,Memel,Europe,http://www.wikidata.org/entity/Q776965,,,,,55.7125,21.135
3364,North Ingria,Europe,http://www.wikidata.org/entity/Q1343485,,,,,60.47861111,30.09111111
3374,Batum,Europe,http://www.wikidata.org/entity/Q25475,,,,,41.645833333333,41.641666666667
3375,Daghestan,Europe,http://www.wikidata.org/entity/Q5118,,,,,42.98388888888889,47.505
3376,Nakhichevan,Europe,http://www.wikidata.org/entity/Q284506,,,,,39.2,45.4
3377,Mountaineers' Republic of the North Caucasus,Europe,http://www.wikidata.org/entity/Q1639475,,,,,42.81666667,47.11666667
3378,Porkkala,Europe,http://www.wikidata.org/entity/Q1474150,,,,,59.983333333333,24.433333333333
3379,Aland Is.,Europe,http://www.wikidata.org/entity/Q5689,,,,,60.25,20
3380,Hangö,Europe,http://www.wikidata.org/entity/Q216790,,,,,59.82361111111111,22.968055555555555
3381,Elba,Europe,http://www.wikidata.org/entity/Q45328,,,,,42.78,10.275
3386,Svalbard Is.,Europe,http://www.wikidata.org/entity/Q25231,,,,,78.15706,15.86426
3387,Jan Mayen Is.,Europe,http://www.wikidata.org/entity/Q14056,,,,,70.983,-8.5336
3440,Independent State of Croatia,Europe,https://www.wikidata.org/wiki/Q153128,,,,,44.8,15.9667
3450,"State of Slovenes, Croats and Serbs",Europe,https://www.wikidata.org/wiki/Q718374,,,,,45.8,15.966666666667
3451,Serb Republic of Krajina,Europe,http://www.wikidata.org/entity/Q211853,,,,,44.0425,16.199166666667
3452,Serb Republic of Bosnia,Europe,http://www.wikidata.org/entity/Q11196,,,,,44.75,17.316666666667
3453,Vojvodina,Europe,https://www.wikidata.org/wiki/Q44749,,,,,45.25000001,19.85000001
3461,Bosnia,Europe,http://www.wikidata.org/entity/Q188736,,,,,44.16,17.78
3462,Herzegovina,Europe,http://www.wikidata.org/entity/Q189863,,,,,43.476944444444,17.815
3471,Novi Pazar,Europe,http://www.wikidata.org/entity/Q202453,,,,,43.15,20.516666666667
3481,Brda,Europe,http://www.wikidata.org/entity/Q3512355,,,,,,
3501,Western Thrace,Europe,http://www.wikidata.org/entity/Q1192701,,,,,41.1,25.41666667
3502,Mount Athos,Europe,http://www.wikidata.org/entity/Q130321,,,,,40.15833333333333,24.327222222222222
3503,New Greece,Europe,,,,,,,
3504,Samos,Europe,http://www.wikidata.org/entity/Q156882,,,,,37.75,26.8333
3505,Lemnos,Europe,http://www.wikidata.org/entity/Q192483,,,,,39.916666666667,25.25
3521,UN Buffer Zone in Cyprus,Europe,http://www.wikidata.org/entity/Q116970,,,,,,
3551,Eastern Rumelia,Europe,http://www.wikidata.org/entity/Q459780,,,,,42.14333333333333,24.74888888888889
3591,Transdniestria (Pridnestrovian Moldavian Republic),Europe,http://www.wikidata.org/entity/Q907112,,,,,47.3,29.25
3592,Gagauzia,Europe,http://www.wikidata.org/entity/Q164819,,,,,46.316389,28.666389
3601,Danube Islands Neutral Zone,Europe,,,,,,,
3651,Adygea,Europe,http://www.wikidata.org/entity/Q3734,,,,,44.65,40
3652,Altai Republic,Europe,http://www.wikidata.org/entity/Q5971,,,,,50.85,86.9
3653,Bashkir Republic,Europe,http://www.wikidata.org/entity/Q5710,,,,,54.466666666667,56.266666666667
3654,Buryatia,Europe,http://www.wikidata.org/entity/Q6809,,,,,53.8,109.33333333333
3655,Karelia Republic,Europe,http://www.wikidata.org/entity/Q1914,,,,,63.816666666667,33
3659,Kresy,Europe,https://www.wikidata.org/wiki/Q1411476,,,,,,
3691,Western Ukraine,Europe,http://www.wikidata.org/entity/Q1729457,,,,,50,26
3692,Northeren Russia,Europe,http://www.wikidata.org/entity/Q965661,,,,,,
3693,Republic of the Don,Europe,http://www.wikidata.org/entity/Q2453974,,,,,47.4167,40.1
3694,Odessa,Europe,http://www.wikidata.org/entity/Q1874,,,,,46.47747,30.73262
3695,Crimea,Europe,http://www.wikidata.org/entity/Q756294,,,,,44.9333,34.1
3696,Novorossiya,Europe,http://www.wikidata.org/entity/Q16912926,,,,,48.0028,37.8053
3697,Donetsk,Europe,http://www.wikidata.org/entity/Q43070,,,,,48.01583333333333,37.80277777777778
3698,Luhansk,Europe,http://www.wikidata.org/entity/Q134279,,,,,48.5717084,39.2973153
3712,Artsakh (Republic of Karabakh),Europe,http://www.wikidata.org/entity/Q244165,,,,,39.81722222222222,46.75055555555556
3721,Abkhazia,Europe,http://www.wikidata.org/entity/Q23334,,,,,43.15,41
3722,South Ossetia,Europe,http://www.wikidata.org/entity/Q23427,,,,,42.225,43.97
3723,Adjara,Europe,http://www.wikidata.org/entity/Q45693,,,,,41.65,42
3761,Chechen Republic,Europe,http://www.wikidata.org/entity/Q5187,,,,,43.4,45.716694444444
3762,"Ingushetia, Republic of",Europe,http://www.wikidata.org/entity/Q5219,,,,,43.2,45
3805,Sweden-Norway Neutral Zone,Europe,http://www.wikidata.org/entity/Q2742785,,,,,69.059726851852,20.544430555556
3901,Bornholm I.,Europe,http://www.wikidata.org/entity/Q769680,,,,,55.125,14.916666666667
4031,Principe,Africa,http://www.wikidata.org/entity/Q210636,,,,,1.6166666666667,7.4
4041,Cacheu,Africa,http://www.wikidata.org/entity/Q1002807,,,,,12.2780115,-16.1649709
4042,Bissau,Africa,http://www.wikidata.org/entity/Q3739,,,,,11.859166666667,-15.595555555556
4043,Oio,Africa,http://www.wikidata.org/entity/Q853991,,,,,12.25,-15.25
4044,British Guinea (Bolama),Africa,https://www.wikidata.org/wiki/Q105982074,,,,,,
4050,St. Helena,Africa,http://www.wikidata.org/entity/Q34497,,,,,-15.95,-5.7166666666667
4051,Longwood,Africa,http://www.wikidata.org/entity/Q222213,,,,,-15.945833333333333,-5.686388888888889
4060,Tristan da Cunha,Africa,http://www.wikidata.org/entity/Q220982,,,,,-37.15,-12.3
4070,Ascension I.,Africa,http://www.wikidata.org/entity/Q46197,,,,,-7.95,-14.35
4111,Annobon I.,Africa,http://www.wikidata.org/entity/Q728665,,,,,-1.435278,5.630833
4112,Corisco I.,Africa,http://www.wikidata.org/entity/Q749561,,,,,0.91666666666667,9.3333333333333
4113,Elobey Is.,Africa,https://www.wikidata.org/wiki/Q1333186,,,,,0.98333333333333,9.5
4114,"Elobey, Annóbon and Corisco",Africa,https://www.wikidata.org/wiki/Q3051633,,,,,3.7524069444444,8.775265
4321,Tokolor Empire,Africa,http://www.wikidata.org/entity/Q536476,,,,,13.4307,-6.2663
4322,Timbuctu,Africa,http://www.wikidata.org/entity/Q9427,,,,,16.773333055556,-2.9994438888889
4323,Bambuk,Africa,http://www.wikidata.org/entity/Q805975,,,,,13.900482,-11.456096
4324,Dinguiray,Africa,http://www.wikidata.org/entity/Q1006013,,,,,11.290555555556,-10.712222222222
4325,Kaarta,Africa,http://www.wikidata.org/entity/Q924833,,,,,,
4326,Macina,Africa,http://www.wikidata.org/entity/Q635394,,,,,,
4327,Segu,Africa,http://www.wikidata.org/entity/Q333476,,,,,13.45,-6.2666666666667
4328,Sikasso,Africa,http://www.wikidata.org/entity/Q461298,,,,,11.199722222222,-7.0969444444444
4331,Futa Toro,Africa,http://www.wikidata.org/entity/Q1440091,,,,,16.186367,-13.882657
4332,Futa Bondu,Africa,http://www.wikidata.org/entity/Q892272,,,,,14.347762,-12.470621
4333,Cayor,Africa,http://www.wikidata.org/entity/Q1052040,,,,,15.322177,-16.684776
4334,Rip,Africa,http://www.wikidata.org/entity/Q3433004,,,,,,
4335,Saloum,Africa,http://www.wikidata.org/entity/Q1471373,,,,,14.161389,-16.030833
4336,Sine,Africa,http://www.wikidata.org/entity/Q862467,,,,,,
4337,Walo,Africa,http://www.wikidata.org/entity/Q206279,,,,,16.47088888888889,-15.711638888888888
4338,Goree,Africa,http://www.wikidata.org/entity/Q244347,,,,,14.666944444444,-17.398333333333
4341,Old Dahomey,Africa,http://www.wikidata.org/entity/Q468814,,,,,7.1855555555556,1.9880555555556
4342,Gun,Africa,,http://www.wikidata.org/entity/Q22132744,,,links to a tribe or a language,,
4343,Ketu,Africa,http://www.wikidata.org/entity/Q3311513,,,,,,
4344,Grand Popo,Africa,http://www.wikidata.org/entity/Q1542478,,,,,6.2833333333333,1.8333333333333
4345,Ouidah,Africa,http://www.wikidata.org/entity/Q850031,http://www.wikidata.org/entity/Q1716449,,,,6.3666666666667,2.0833333333333
4346,Anecho (Little Popo),Africa,http://www.wikidata.org/entity/Q1018574,,,,,6.2288888888889,1.5930555555556
4347,Cotonou,Africa,http://www.wikidata.org/entity/Q43595,,,,,6.3666666666667,2.4166666666667
4348,Porto Novo,Africa,http://www.wikidata.org/entity/Q3799,,,,,6.4833333333333,2.6166666666667
4349,Ajuda,Africa,http://www.wikidata.org/entity/Q1969968,,,,,6.35888889,2.09
4351,Adrar,Africa,http://www.wikidata.org/entity/Q366626,,,,,20.517694444444444,-13.053833333333333
4352,Brakna,Africa,http://www.wikidata.org/entity/Q12632,,,,,17.06088888888889,-13.911583333333333
4353,Tagant,Africa,http://www.wikidata.org/entity/Q843903,,,,,18.554944444444445,-11.433444444444444
4354,Trarza,Africa,http://www.wikidata.org/entity/Q1812976,,,,,17.499503,-15.463272
4361,Aïr,Africa,http://www.wikidata.org/entity/Q1502813,,,,,,
4362,Zinder,Africa,http://www.wikidata.org/entity/Q204365,,,,,13.8,8.9833333333333
4371,Odienne,Africa,http://www.wikidata.org/entity/Q506811,,,,,9.5,-7.5666666666667
4372,Grand-Bassam,Africa,http://www.wikidata.org/entity/Q582922,,,,,5.2,-3.7333333333333
4373,Assinie,Africa,http://www.wikidata.org/entity/Q2867185,,,,,5.135569,-3.290577
4381,Futa Djallon,Africa,http://www.wikidata.org/entity/Q760741,,,,,,
4382,Kankan,Africa,http://www.wikidata.org/entity/Q874317,,,,,10.383333333333,-9.3
4383,Loos Is.,Africa,https://www.wikidata.org/wiki/Q292625,,,,,9.4625,-13.795
4391,Gurma,Africa,http://www.wikidata.org/entity/Q432317,,,,,12.083333333333,-0.5
4392,Kong,Africa,http://www.wikidata.org/entity/Q1587244,,,,,9.150555555555556,-4.610277777777778
4393,Mandinka (Wassoulou) Empire,Africa,http://www.wikidata.org/entity/Q568712,,,,,9.933,-9.156
4394,Mamprussi,Africa,https://www.wikidata.org/wiki/Q641337,,,,links to a tribe,,
4395,Ouagadougou (Mossi Empire),Africa,https://www.wikidata.org/wiki/Q862522,,,,,,
4396,Yatenga,Africa,http://www.wikidata.org/entity/Q65123867,http://www.wikidata.org/entity/Q569904,,,,,
4397,Busuma,Africa,,,,,,,
4398,Riziam,Africa,http://www.wikidata.org/entity/Q3434028,http://www.wikidata.org/entity/Q163352,,,,,
4501,Maryland,Africa,http://www.wikidata.org/entity/Q544630,,,,,4.36666667,-7.71666667
4512,Aku,Africa,http://www.wikidata.org/entity/Q24697842,,,,,5.4925,-1.02
4513,Banana Islands,Africa,http://www.wikidata.org/entity/Q806076,,,,,8.11722222,-13.21166667
4514,Bumpe,Africa,http://www.wikidata.org/entity/Q2946676,,,,,7.8919444444444,-11.9025
4515,Koya-Temne,Africa,http://www.wikidata.org/entity/Q6412616,,,,,,
4516,Shenge (Plantation Island),Africa,http://www.wikidata.org/entity/Q7494263,,,,,7.9,-12.93333333
4521,Asante (Ashanti Empire),Africa,http://www.wikidata.org/entity/Q722071,,,,,5.45,-0.96666667
4522,Adansi,Africa,http://www.wikidata.org/entity/Q4680636,,,,,6.4833333,0.1833333
4523,Akwamu,Africa,http://www.wikidata.org/entity/Q1791839,,,,,,
4524,Akwapim,Africa,http://www.wikidata.org/entity/Q423691,,http://www.wikidata.org/entity/Q176435,,,5.8,-0.23333333333333334
4525,Akyem,Africa,http://www.wikidata.org/entity/Q418389,,,,links to a tribe or a language,,
4526,Dagomba,Africa,http://www.wikidata.org/entity/Q24697413,,,,,9.5,-0.25
4527,Denkyira,Africa,http://www.wikidata.org/entity/Q1164302,,,,,,
4528,Fante,Africa,https://www.wikidata.org/wiki/Q1395929,,,,,,
4529,Ga,Africa,http://www.wikidata.org/entity/Q2553691,http://www.wikidata.org/entity/Q2553740,,http://www.wikidata.org/entity/Q431729,,5.733333333333333,-0.20833333333333334
4531,Gonja,Africa,http://www.wikidata.org/entity/Q1477754,,,,,,
4532,Gyamen,Africa,http://www.wikidata.org/entity/Q1644002,,,,,,
4533,Wassa,Africa,http://www.wikidata.org/entity/Q7972734,,,,links to a tribe or a language,,
4534,Danish Posts (Gold Coast),Africa,http://www.wikidata.org/entity/Q770833,,,,,,
4535,Dutch Posts (Gold Coast),Africa,http://www.wikidata.org/entity/Q770776,,,,,,
4536,Northern Territories (Gold Coast),Africa,http://www.wikidata.org/entity/Q503623,,,,,5.55,-0.2167
4559,Gold Coast-Togoland (Neutral Zone),Africa,http://www.wikidata.org/entity/Q319125,,,,,9,-0.66666669
4711,Bamum (Bamoun),Africa,http://www.wikidata.org/entity/Q1629505,,,,,5.716667,10.916667
4735,Kontagora,Africa,http://www.wikidata.org/entity/Q6430319,,,,,10.4,5.46666667
4736,Keana,Africa,http://www.wikidata.org/entity/Q6382153,,,,,8.147346,8.800478
4737,Fika,Africa,http://www.wikidata.org/entity/Q5448221,,,,,,
4738,Doma (Gara),Africa,,,,,,,
4741,Abuja (Suleja),Africa,http://www.wikidata.org/entity/Q1814476,,,,,9.18333333,7.18333333
4742,Igala,Africa,http://www.wikidata.org/entity/Q17029087,,,,,,
4744,Wukari (Kwararafa),Africa,http://www.wikidata.org/entity/Q15043630,http://www.wikidata.org/entity/Q2518009,,,,7.85,9.78333
4746,Yauri,Africa,http://www.wikidata.org/entity/Q8050352,,,,,10.7489,4.77778
4750,Oyo Empire,Africa,https://www.wikidata.org/wiki/Q849623,,,,,,
4751,Sokoto,Africa,http://www.wikidata.org/entity/Q600524,,,,,13.067222222222222,5.247777777777777
4752,Adamawa,Africa,http://www.wikidata.org/entity/Q775550,,,,,9.15,10
4753,Bauchi,Africa,http://www.wikidata.org/entity/Q811144,,,,,10.315833333333,9.8441666666667
4754,Gwandu,Africa,http://www.wikidata.org/entity/Q1337777,,,,,12.51695,4.66493
4755,Hadejia,Africa,http://www.wikidata.org/entity/Q5637733,,,,,12.45,10.04
4756,Ilorin,Africa,http://www.wikidata.org/entity/Q6001098,http://www.wikidata.org/entity/Q587085,,,,8.5,4.55
4757,Kano,Africa,http://www.wikidata.org/entity/Q182984,http://www.wikidata.org/entity/Q3123512,,,,12,8.5166666666667
4758,Katsina,Africa,http://www.wikidata.org/entity/Q937487,,,,,12.988888888888889,7.600833333333333
4759,Katagum,Africa,http://www.wikidata.org/entity/Q6375000,,,,,12.2833,10.35
4761,Nupe,Africa,http://www.wikidata.org/entity/Q121869,,,,,,
4762,Zaria,Africa,http://www.wikidata.org/entity/Q147975,,,,,11.066666666667,7.7
4763,Bornu (Kanem),Africa,http://www.wikidata.org/entity/Q1139762,,,,,,
4765,Mandara,Africa,http://www.wikidata.org/entity/Q1796221,,,,,,
4766,Rabah,Africa,http://www.wikidata.org/entity/Q7278481,,,,,13.116666666667,5.5166666666667
4768,Egba,Africa,http://www.wikidata.org/entity/Q3268656,,,,,,
4769,Ibadan,Africa,http://www.wikidata.org/entity/Q183298,,,,,7.3775,3.9058333333333
4771,Ife,Africa,http://www.wikidata.org/entity/Q180084,,,,,7.4666666666667,4.5666666666667
4772,Ijaiye,Africa,http://www.wikidata.org/entity/Q5995069,,,,,,
4773,Ijebu,Africa,http://www.wikidata.org/entity/Q1658023,,,,,,
4774,Ilesha,Africa,http://www.wikidata.org/entity/Q763595,,,,,7.6333333333333,4.75
4775,New Oyo,Africa,http://www.wikidata.org/entity/Q849623,http://www.wikidata.org/entity/Q1023703,,,,,
4776,Benin (Edo),Africa,http://www.wikidata.org/entity/Q171203,,,,,6.31667,5.6
4781,Lagos,Africa,http://www.wikidata.org/entity/Q8673,,,,,6.45,3.4
4782,Oil Rivers Protectorate,Africa,http://www.wikidata.org/entity/Q2566427,,,,,,
4783,Southern Nigeria (Niger Coast Protectorate),Africa,http://www.wikidata.org/entity/Q2062030,,,,,6.45,3.4
4784,Northern Nigeria (British Nigeria),Africa,http://www.wikidata.org/entity/Q585408,,,,,9.8,6.15
4790,Biafra,Africa,http://www.wikidata.org/entity/Q178469,,,,,6.45,7.5
4791,Bonny,Africa,http://www.wikidata.org/entity/Q6412546,,,,,4.43333333,7.16666667
4792,Old Calabar (Efik),Africa,http://www.wikidata.org/entity/Q3527954,,,,,4.95,8.31666667
4793,New Calabar (Kalabari),Africa,http://www.wikidata.org/entity/Q6350012,,,,,4.56833333,6.97611111
4794,Opobo,Africa,http://www.wikidata.org/entity/Q3238928,,,,,4.5113888888889,7.54
4795,Nembe (Brass),Africa,http://www.wikidata.org/entity/Q3510576,,,,,4.533330555555556,6.4
4796,Okrika,Africa,http://www.wikidata.org/entity/Q7082573,,,,,4.74,7.083
4821,Bangassou,Africa,http://www.wikidata.org/entity/Q806478,,,,,4.737,22.819
4822,Rafai,Africa,http://www.wikidata.org/entity/Q665219,,,,,4.9730555555556,23.931944444444
4823,Zemio,Africa,http://www.wikidata.org/entity/Q55425392,,,,,,
4831,Bagirmi,Africa,http://www.wikidata.org/entity/Q1472873,,,,,11.4028,16.17
4832,Wadai,Africa,http://www.wikidata.org/entity/Q1132786,,,,,,
4841,Bateke (Anziku),Africa,http://www.wikidata.org/entity/Q4778463,,,,,,
4842,Loango,Africa,http://www.wikidata.org/entity/Q1479630,,,,,-4.7106,11.8378
4901,Tippu Tip Empire,Africa,http://www.wikidata.org/entity/Q60775599,,,,,,
4902,Lunda Kingdom (Mwata Yamvo),Africa,http://www.wikidata.org/entity/Q1796223,,,,,,
4903,Kalagne,Africa,http://www.wikidata.org/entity/Q22141829,,,,,,
4904,Luba Kingdom,Africa,http://www.wikidata.org/entity/Q1768252,,,,,-7.3596,25.6784
4905,Katanga (State of Katanga) (Msiri's Yeke Kingdom),Africa,http://www.wikidata.org/entity/Q217242,https://www.wikidata.org/wiki/Q1148907,http://www.wikidata.org/entity/Q3321385,,,-9,26
4906,Kasai,Africa,http://www.wikidata.org/entity/Q3820436,,,,,-5.35,21.4167
4908,Azande,Africa,http://www.wikidata.org/entity/Q793575,,,,links to a tribe or a language,,
4909,Mangbetu,Africa,http://www.wikidata.org/entity/Q1602764,,,,,,
4910,Kuba,Africa,http://www.wikidata.org/entity/Q209327,,,,,,
5001,Buganda,Africa,http://www.wikidata.org/entity/Q473748,,,,,0.331944,32.4181
5002,Ankole,Africa,http://www.wikidata.org/entity/Q538636,,,,,-0.613333,30.658333
5003,Bunyoro,Africa,http://www.wikidata.org/entity/Q889897,,,,,1.4841666666667,31.1325
5004,Busoga,Africa,http://www.wikidata.org/entity/Q691037,,,,,0.4675,33.24138889
5005,Butoro,Africa,,,,,,,
5006,Rwenzururu,Africa,http://www.wikidata.org/entity/Q2795682,,,,,,
5011,Kenya Protectorate,Africa,http://www.wikidata.org/entity/Q2538511,,,,,,
5012,Mombassa,Africa,http://www.wikidata.org/entity/Q1112885,,,,,-4.05,39.666666666667
5013,Pate,Africa,http://www.wikidata.org/entity/Q542168,,,,,-2.1,41.05
5017,Vumbu Kuu,Africa,,,,,,,
5018,Wanga (Wanga Kingdom),Africa,https://www.wikidata.org/wiki/Q104901589,,,,,,
5101,Ha,Africa,http://www.wikidata.org/entity/Q2995962,,,,,,
5102,Haya,Africa,http://www.wikidata.org/entity/Q1824726,,,,,,
5103,Hehe,Africa,http://www.wikidata.org/entity/Q1261861,,,,links to a tribe or a language,,
5104,Karagwe,Africa,http://www.wikidata.org/entity/Q28455505,,,,,,
5105,Urambo,Africa,http://www.wikidata.org/entity/Q2500021,,,,,-5,31.9167
5106,Gwangara,Africa,http://www.wikidata.org/entity/Q1474869,,,,links to a tribe or a language,,
5107,North Gwangara,Africa,,,,,,,
5108,South Gwangara,Africa,,,,,,,
5109,Mafia I.,Africa,https://www.wikidata.org/wiki/Q713391,,,,,-7.85,39.783333333333
5200,Italian Somaliland,Africa,http://www.wikidata.org/entity/Q319984,,,,,2.29889,45.7989
5201,Italian East Africa,Africa,http://www.wikidata.org/entity/Q328478,,,,,9.046666666666667,38.757777777777775
5202,Oltre Giuba,Africa,http://www.wikidata.org/entity/Q1231992,,,,,-0.613007,41.344985
5203,Alula (Majeerteen),Africa,http://www.wikidata.org/entity/Q448076,http://www.wikidata.org/entity/Q2257830,,,,11.966666666667,50.75
5204,Obbia,Africa,http://www.wikidata.org/entity/Q862404,,,,,,
5205,Somali Coast Territory,Africa,http://www.wikidata.org/entity/Q806070,,,,,2.0497222222222,45.262222222222
5206,Puntland,Africa,http://www.wikidata.org/entity/Q485112,http://www.wikidata.org/entity/Q822679,,,,8.4,48.5
5207,Mogadishu,Africa,http://www.wikidata.org/entity/Q2449,,,,,2.0391666666666666,45.341944444444444
5208,Merca,Africa,http://www.wikidata.org/entity/Q657428,,,,,1.715556,44.770278
5209,Barawa,Africa,http://www.wikidata.org/entity/Q613246,,,,,1.1133333333333,44.030277777778
5211,Warsheikh,Africa,http://www.wikidata.org/entity/Q1016898,,,,,2.3,45.8
5212,Geledi,Africa,http://www.wikidata.org/entity/Q862518,,,,,2.12,45.12
5221,Tadjoura,Africa,http://www.wikidata.org/entity/Q820972,,,,,11.783333333333,42.883333333333
5222,Obock,Africa,http://www.wikidata.org/entity/Q844929,,,,,11.971667,43.293333
5301,Amhara,Africa,http://www.wikidata.org/entity/Q2784456,,,,,11.6608,37.9578
5302,Gondar,Africa,http://www.wikidata.org/entity/Q218861,,,,,12.6,37.466666666667
5303,Shewa,Africa,http://www.wikidata.org/entity/Q971375,,,,,9,39
5304,Tigray,Africa,http://www.wikidata.org/entity/Q200127,,,,,13.575,39.0875
5305,Gojjam,Africa,http://www.wikidata.org/entity/Q1533914,,,,,11,37
5306,Harar,Africa,http://www.wikidata.org/entity/Q5372551,,,,,,
5307,"Jijega, Reserve Areas and Haud",Africa,http://www.wikidata.org/entity/Q755763,,,,,9.35,42.8
5309,Kaffa,Africa,http://www.wikidata.org/entity/Q1462877,,,,,7.27,36.24
5321,Limmu-Ennarea,Africa,http://www.wikidata.org/entity/Q48723590,,,,,8.2,36.933333
5322,Jimma-Kakka (Jimma Abba Jifar),Africa,http://www.wikidata.org/entity/Q1759078,,,,,7.666667,36.833333
5323,Gera,Africa,http://www.wikidata.org/entity/Q500965,,,,,7.666667,36.25
5324,Gomma,Africa,http://www.wikidata.org/entity/Q501684,,,,,,
5325,Guma,Africa,http://www.wikidata.org/entity/Q5618018,,,,,7.95,36.45
5331,Assab,Africa,http://www.wikidata.org/entity/Q5785,,,,,19.5,-80.5
5332,Awsa Sultanate,Africa,http://www.wikidata.org/entity/Q791787,,,,,11.566667,41.433333
5401,Chokwe,Africa,http://www.wikidata.org/entity/Q618643,,,,,-11.783,19.913
5402,Ovimbundu,Africa,http://www.wikidata.org/entity/Q214248,,,,,-12.55,13.416666666667
5403,Cabinda (Portuguese Congo),Africa,https://www.wikidata.org/wiki/Q168787,,,,,-4.934166666666666,12.405277777777778
5411,Kionga,Africa,http://www.wikidata.org/entity/Q1742340,,,,,-10.596111111111112,40.50861111111111
5511,Citimukulu Bemba,Africa,http://www.wikidata.org/entity/Q644450,,,,links to a tribe,,
5512,Mwamba Bemba,Africa,http://www.wikidata.org/entity/Q644450,,,,links to a tribe,,
5513,Barotseland (Lozi),Africa,http://www.wikidata.org/entity/Q808750,,,,,,
5515,Maseko Ngoni,Africa,http://www.wikidata.org/entity/Q17109664,,,,,,
5516,Shangane (Gaza Empire),Africa,http://www.wikidata.org/entity/Q3780537,,,,,-21.195898,32.745166
5517,Kazembe,Africa,http://www.wikidata.org/entity/Q5675285,,,,,,
5518,Northeastern Rhodesia,Africa,http://www.wikidata.org/entity/Q2753015,,,,,-11.850968,31.404575
5519,Barotseland_North_Western Rhodesia (Northwestern Rhodesia),Africa,https://www.wikidata.org/wiki/Q20312596,https://www.wikidata.org/wiki/Q2400545,,,,-14.91914,26.201097
5521,Rozwi,Africa,http://www.wikidata.org/entity/Q986822,,,,,,
5522,Ndebele (Matabeleland),Africa,http://www.wikidata.org/entity/Q1266775,,,,,-19.83,28.16
5523,Mashona,Africa,http://www.wikidata.org/entity/Q1640913,,,,,-17.6,30.6
5524,Mbelwa Ngoni,Africa,http://www.wikidata.org/entity/Q17109664,,,,links to a tribe or a language,,
5525,Mpezeni Ngoni,Africa,http://www.wikidata.org/entity/Q7135313,,,,,,
5526,Kamanga,Africa,,,,,,,
5531,Zwangendaba Ngoni,Africa,http://www.wikidata.org/entity/Q17109664,,,,,,
5532,Ciwere (Chewa),Africa,http://www.wikidata.org/entity/Q1071390,,,,links to a tribe or a language,,
5601,Zulu,Africa,http://www.wikidata.org/entity/Q129962,,,,links to a tribe or a language,,
5602,Ndandwe,Africa,http://www.wikidata.org/entity/Q3337519,,,,,,
5603,Mtetwa,Africa,http://www.wikidata.org/entity/Q600562,,,,,-28.515,31.8486
5606,Prince Edward and Marion Is.,Africa,http://www.wikidata.org/entity/Q46623,,,,,-46.88,37.75
5611,"Griqualand, West",Africa,http://www.wikidata.org/entity/Q2547918,,,,,-28.75,24.76666667
5612,British Bechuanaland,Africa,http://www.wikidata.org/entity/Q4530733,,,,,-26.95,24.747222
5613,Stellaland and Goshen,Africa,http://www.wikidata.org/entity/Q1269234,http://www.wikidata.org/entity/Q2145397,,,,-26.95,24.73
5614,British Kaffraria,Africa,http://www.wikidata.org/entity/Q918121,,,,,-32.88333333,27.4
5615,Lydenburg Republic,Africa,http://www.wikidata.org/entity/Q220167,,,,,,
5618,Zoutpansberg,Africa,http://www.wikidata.org/entity/Q3110404,,,,,-23.0525,29.77
5621,Zululand,Africa,http://www.wikidata.org/entity/Q729768,,,,,-28.2975,31.4217
5622,New Republic,Africa,http://www.wikidata.org/entity/Q552157,,,,,-27.767,30.8
5641,"Griqualand, East",Africa,http://www.wikidata.org/entity/Q5157575,,,,,-30.55,29.41666667
5642,Winburg Republic (Natalia Republic),Africa,http://www.wikidata.org/entity/Q1029847,,,,,-29,26
5651,Walvis Bay,Africa,http://www.wikidata.org/entity/Q220843,,,,,-22.949444444444,14.506944444444
5711,Bamangwato,Africa,http://www.wikidata.org/entity/Q2628797,,,,,,
5796,Ambohimanga (Merina),Africa,http://www.wikidata.org/entity/Q1071439,,,,,-18.92361111111111,47.532222222222224
5797,Menabe,Africa,http://www.wikidata.org/entity/Q1344087,,,,,-20.3,44.28
5798,Antaimoro,Africa,http://www.wikidata.org/entity/Q721579,,,,,,
5799,Boina,Africa,http://www.wikidata.org/entity/Q557842,,,,,-15.72,46.32
5801,Nossi Be,Africa,http://www.wikidata.org/entity/Q1330558,,,,,-13.315,48.2675
5802,Diego Suarez,Africa,http://www.wikidata.org/entity/Q218928,,,,,-12.322444444444445,49.295
5803,St. Marie de Madagascar,Africa,http://www.wikidata.org/entity/Q1321311,,,,,-16.9,49.9
5804,Tromelin I.,Africa,http://www.wikidata.org/entity/Q234208,,,,,-15.892222222222,54.524722222222
5805,Bassas Da India I.,Africa,http://www.wikidata.org/entity/Q220601,,,,,-21.4825,39.671944444444
5806,Europa I.,Africa,http://www.wikidata.org/entity/Q193089,,,,,-22.368333333333,40.363333333333
5807,Juan de Nova I.,Africa,http://www.wikidata.org/entity/Q237034,,,,,-17.054444444444,42.725
5808,Glorioso I.,Africa,http://www.wikidata.org/entity/Q236601,,,,,-11.55,47.333333333333
5809,Fort Dauphin,Africa,http://www.wikidata.org/entity/Q526568,,,,,-25.0325,46.983333333333334
5811,Grand Comoro,Africa,http://www.wikidata.org/entity/Q244978,,,,,-11.583333333333,43.333333333333
5812,Mayotte,Africa,http://www.wikidata.org/entity/Q17063,,,,,-12.843055555556,45.138333333333
5813,Anjouan,Africa,http://www.wikidata.org/entity/Q231324,,,,,-12.215,44.425
5814,Moheli,Africa,http://www.wikidata.org/entity/Q271797,,,,,-12.316666666666666,43.733333333333334
5815,Andruna,Africa,http://www.wikidata.org/entity/Q22248237,,,,,-12.6742808,45.1118833
5901,Rodrigues I.,Africa,http://www.wikidata.org/entity/Q208668,,,,,-19.72,63.42
5902,Agalega Is.,Africa,http://www.wikidata.org/entity/Q196042,,,,,-10.415,56.635
5903,Cargados Carajos Shoals,Africa,http://www.wikidata.org/entity/Q511859,,,,,-16.583333333333,59.616666666667
5920,British Indian Ocean Territory (Chagos Archipelago),Africa,http://www.wikidata.org/entity/Q43448,,,,,-6,71.5
5921,Amirante Is.,Africa,https://www.wikidata.org/wiki/Q472207,,,,,-6,53.06667
6001,Oujda,Africa,http://www.wikidata.org/entity/Q193802,,,,,34.686666666667,-1.9113888888889
6021,Southern zone of Spanish Morocco,Africa,http://www.wikidata.org/entity/Q1538846,,,,,27.947777777778,-12.923333333333
6023,Republic of the Rif,Africa,http://www.wikidata.org/entity/Q37102,,,,,35.2,-3.9166666666666665
6030,Tetuan,Africa,http://www.wikidata.org/entity/Q185157,,,,,35.566666666667,-5.3666666666667
6061,Alhucemas,Africa,http://www.wikidata.org/entity/Q1184963,,,,,35.215,-3.89611111
6062,Ceuta,Africa,http://www.wikidata.org/entity/Q5823,,,,,35.886667,-5.3
6063,Chafarinas,Africa,http://www.wikidata.org/entity/Q130574,,,,,35.183333333333,-2.4333333333333
6064,Melilla,Africa,http://www.wikidata.org/entity/Q5831,,,,,35.2825,-2.9475
6065,Penon de Velez,Africa,http://www.wikidata.org/entity/Q191146,,,,,35.172222222222224,-4.299722222222222
6066,Morocco-Melilla Neutral Zone,Africa,http://www.wikidata.org/entity/Q2748217,,,,,35.905555555556,-2.1013888888889
6067,Captaincy-general of north Africa,Africa,,,,,,,
6090,Río de Oro,Africa,https://www.wikidata.org/wiki/Q929147,,,,,23,-13
6151,Abdelkader Emirate,Africa,http://www.wikidata.org/entity/Q3591817,http://www.wikidata.org/entity/Q545707,,,,,
6152,Kabylie,Africa,http://www.wikidata.org/entity/Q46178,,,,,36.6,5
6153,Leased Posts in Algeria,Africa,,,,,,,
6161,Bizerte,Africa,http://www.wikidata.org/entity/Q189546,,,,,37.274444444444,9.8738888888889
6202,Cyrenaica,Africa,http://www.wikidata.org/entity/Q165198,,,,,32.28333333333333,21.633333333333333
6203,Tripolitania (Regency of Tripoli),Africa,http://www.wikidata.org/entity/Q192435,,,,,32.9,13.183333
6204,Fezzan,Africa,https://www.wikidata.org/wiki/Q188258,,,,,26.3328,13.4253
6251,Darfur (Darfur Sultanate),Africa,https://www.wikidata.org/wiki/Q46733,https://www.wikidata.org/wiki/Q1474791,,,,13,25
6252,Funj Sultanate,Africa,http://www.wikidata.org/entity/Q1475713,,,,,15.6572,32.348
6253,Kordofan,Africa,http://www.wikidata.org/entity/Q867052,,,,,13,29.5
6255,Shilluk,Africa,http://www.wikidata.org/entity/Q3482103,,,,,,
6256,North Kordofan,Africa,http://www.wikidata.org/entity/Q864093,,,,,14.366666666667,29.533333333333
6257,South Kordofan,Africa,http://www.wikidata.org/entity/Q465490,,,,,11.133333333333,29.883333333333
6258,West Kordofan,Africa,http://www.wikidata.org/entity/Q536396,,,,,12,28.15
6301,Mahabad,Asia,http://www.wikidata.org/entity/Q335518,,,,,36.765,45.721
6302,Iranian Azerbaijan,Asia,http://www.wikidata.org/entity/Q274536,http://www.wikidata.org/entity/Q2305337,,,,37.6,47
6303,Gilan,Asia,http://www.wikidata.org/entity/Q928828,,,,,37.2774,49.589
6304,Khuzestan,Asia,http://www.wikidata.org/entity/Q241119,,,,,31.3273,48.694
6305,Bushire,Asia,http://www.wikidata.org/entity/Q158928,http://www.wikidata.org/entity/Q132945,,,,28.968888888888888,50.836666666666666
6306,Bandar Abbas,Asia,http://www.wikidata.org/entity/Q154814,,,,,27.18638888888889,56.280833333333334
6309,Kharg I.,Asia,http://www.wikidata.org/entity/Q913355,,,,,29.245,50.31
6401,Cilicia,Asia,http://www.wikidata.org/entity/Q620864,,,,,36.985,35.12
6402,Western Anatolia,Asia,http://www.wikidata.org/entity/Q51614,,,,,39,35
6403,Hatay (Alexandretta),Asia,http://www.wikidata.org/entity/Q83274,http://www.wikidata.org/entity/Q146761,,,,36.2,36.15
6404,Adalia,Asia,http://www.wikidata.org/entity/Q6487,,,,,36.90812,30.69556
6405,Dardanelles-Istanbul,Asia,http://www.wikidata.org/entity/Q406,,,,,41.01,28.960277777778
6451,Iraq-Saudi Arabia Neutral Zone,Asia,http://www.wikidata.org/entity/Q15710,,,,,29.12527778,45.52111111
6452,Iraq Occupation Zone,Asia,,,,,,,
6453,Iraq-Kuwait Demilitarized Zone,Asia,http://www.wikidata.org/entity/Q2682087,,,,,,
6454,Kurdistan Occupation Zone,Asia,http://www.wikidata.org/entity/Q205047,,,,,36.183333333333,44
6511,Gaza,Asia,http://www.wikidata.org/entity/Q39760,,,,,31.45,34.4
6512,Sinai,Asia,http://www.wikidata.org/entity/Q36755,,,,,29.5,33.833333333333
6513,Sinai Demilitarized Zones,Asia,,,,,,,
6514,Suez Canal Zone,Africa,http://www.wikidata.org/entity/Q899,,,,,30.705,32.344166666667
6521,Golan Heights,Asia,http://www.wikidata.org/entity/Q83210,,,,,33,35.75
6522,Golan Heights Demilitarized Zone,Asia,,,,,,,
6523,Rouad I.,Asia,http://www.wikidata.org/entity/Q377802,,,,,34.856111111111,35.858333333333
6524,Damascus,Asia,http://www.wikidata.org/entity/Q3766,,,,,33.513055555556,36.291944444444
6525,Aleppo,Asia,http://www.wikidata.org/entity/Q41183,,,,,36.2,37.16
6526,Latakia (Alaouites),Asia,http://www.wikidata.org/entity/Q200030,,,,,35.523611111111,35.791666666667
6527,Jebel Druze,Asia,http://www.wikidata.org/entity/Q146740,,,,,,
6601,South Lebanon Security Zone (Free State of South Lebanon),Asia,http://www.wikidata.org/entity/Q30633791,http://www.wikidata.org/entity/Q12408854,,,,,
6631,West Bank,Asia,http://www.wikidata.org/entity/Q36678,,,,,32,35.35
6632,Israel-Jordan Neutral Zone,Asia,http://www.wikidata.org/entity/Q312818,,,,,31.7925,35.244166666667
6661,Al Auja,Asia,http://www.wikidata.org/entity/Q2895271,,,,,31.947608333333,35.461775
6800,Socotra I.,Asia,http://www.wikidata.org/entity/Q2860218,,,,,12.5,53.4
6801,Federation of South Arabia,Asia,http://www.wikidata.org/entity/Q834486,,,,,15.33,48.076
6802,Perim I.,Asia,http://www.wikidata.org/entity/Q1160017,,,,,12.659722222222221,43.420833333333334
6803,Federation of Arab Emirates of the South,Asia,http://www.wikidata.org/entity/Q1479724,,,,,12.828906,45.028432
6811,West Aden Protectorate,Asia,http://www.wikidata.org/entity/Q1752951,,,,,13.981388888889,45.573333333333
6812,East Aden Protectorate,Asia,http://www.wikidata.org/entity/Q310772,,,,,14.533333333333,49.133333333333
6821,Lahej,Asia,http://www.wikidata.org/entity/Q404774,,,,,13.1,45.4667
6822,Aqrabi,Asia,http://www.wikidata.org/entity/Q2121850,,,,,12.53,44.5
6823,Dhala,Asia,http://www.wikidata.org/entity/Q6415938,,,,,13.69666667,44.73083333
6824,Radfan,Asia,http://www.wikidata.org/entity/Q3436040,,,,,,
6825,Alawi,Asia,http://www.wikidata.org/entity/Q2121839,,,,,13.468,44.656
6826,Haushabi,Asia,http://www.wikidata.org/entity/Q1591062,,,,,13.4333,44.6
6827,Maflahi,Asia,http://www.wikidata.org/entity/Q751372,,,,,13.6833,44.7167
6828,Shaibi,Asia,http://www.wikidata.org/entity/Q925899,,,,,13.6833,44.7167
6829,Upper Yafai,Asia,http://www.wikidata.org/entity/Q1367119,,,,,13.830833333333,45.255555555556
6831,Lower Yafai,Asia,http://www.wikidata.org/entity/Q1295806,,,,,13.216666666667,45.3
6832,Fadhli,Asia,http://www.wikidata.org/entity/Q182279,,,,,13.416666666667,45.666666666667
6833,Beihan,Asia,http://www.wikidata.org/entity/Q2485209,,,,,13.4167,45.6667
6834,Audhali,Asia,http://www.wikidata.org/entity/Q758709,,,,,13.54,45.52
6835,Upper Aulaqi (Sultanate),Asia,http://www.wikidata.org/entity/Q1897860,,,,,14.51,46.5
6836,Upper Aulaqi (Sheikhdom),Asia,http://www.wikidata.org/entity/Q1641428,,,,,14.3,46.5
6837,Lower Aulaqi,Asia,http://www.wikidata.org/entity/Q2121845,,,,,13.31,46.42
6838,Dathina Confederation,Asia,http://www.wikidata.org/entity/Q1172593,,,,,13.9333,46.0833
6841,Wahidi,Asia,http://www.wikidata.org/entity/Q1897800,,,,,13.9667,48.1833
6842,Haura,Asia,http://www.wikidata.org/entity/Q65050489,,,,,13.817366,47.578196
6843,Irqa,Asia,http://www.wikidata.org/entity/Q65051443,,,,,,
6844,Kathiri of Seiyun,Asia,http://www.wikidata.org/entity/Q1296908,,,,,17.166666666667,50.25
6845,Quaiti of Shihr and Mukalla,Asia,http://www.wikidata.org/entity/Q202775,,,,,14.58333333,49.08333333
6846,Mahri of Qishn and Socotra,Asia,http://www.wikidata.org/entity/Q1885093,,,,,15.8,51.7333
6901,Neutral Zone (Kuwait-Saudi Arabia),Asia,http://www.wikidata.org/entity/Q74091,,,,,28.528205,48.062422
6959,Buraimi Neutral Zone,Asia,http://www.wikidata.org/entity/Q852039,http://www.wikidata.org/entity/Q61439267,,,,24.25,55.783333333333
6961,Abu Dhabi,Asia,http://www.wikidata.org/entity/Q187712,http://www.wikidata.org/entity/Q1519,,,,23.666666666666668,54
6962,Dubai,Asia,http://www.wikidata.org/entity/Q613,http://www.wikidata.org/entity/Q612,,,,25.264444444444,55.311666666667
6963,Sharjah,Asia,http://www.wikidata.org/entity/Q188810,http://www.wikidata.org/entity/Q289693,,,,25.35,55.433055555555555
6964,Kalba,Asia,http://www.wikidata.org/entity/Q2204078,,,,,25.0513,56.35422
6965,Ajman,Asia,http://www.wikidata.org/entity/Q159477,http://www.wikidata.org/entity/Q530171,,,,25.4,55.5
6966,Umm al Qawain,Asia,http://www.wikidata.org/entity/Q175021,,,,,25.55,55.55
6967,Ras al Khaimah,Asia,http://www.wikidata.org/entity/Q170024,,,,,25.783333333333,55.95
6968,Fujairah,Asia,http://www.wikidata.org/entity/Q4091,http://www.wikidata.org/entity/Q4045,,,,25.133055555555554,56.33305555555555
6969,Abu Dhabi-Dubai Neutral Zone,Asia,,,,,,,
6971,Abu Musa I.,Asia,http://www.wikidata.org/entity/Q167217,,,,,25.875,55.03
6981,Inner Oman,Asia,http://www.wikidata.org/entity/Q2342282,,,,,22.933333333333,57.533333333333
6982,Kuria Muria Is.,Asia,http://www.wikidata.org/entity/Q521176,,,,,17.5,56
6983,Oman-Sharjah Neutral Zone,Asia,,,,,,,
7001,Kabul,Asia,http://www.wikidata.org/entity/Q188933,http://www.wikidata.org/entity/Q5838,,,,34.56,69.22
7002,Kandahar,Asia,http://www.wikidata.org/entity/Q173808,,,,,31,65.5
7003,Herat,Asia,http://www.wikidata.org/entity/Q182844,,,,,34,62
7004,Badakhshan,Asia,http://www.wikidata.org/entity/Q165376,,,,,38,71
7010,Kokand,Asia,http://www.wikidata.org/entity/Q696241,,,,,40.528611,70.9425
7020,Bokhara,Asia,http://www.wikidata.org/entity/Q746558,,,,,39.774722222222,64.428611111111
7021,Gorno Badakhshan,Asia,http://www.wikidata.org/entity/Q207319,,,,,38,73
7030,Khiva,Asia,http://www.wikidata.org/entity/Q491106,,,,,41.37833333333333,60.36388888888889
7031,Karakalpakstan,Asia,http://www.wikidata.org/entity/Q484245,,,,,43.04,58.86
7040,Kazakh Lesser Horde,Asia,http://www.wikidata.org/entity/Q4208097,,,,,,
7050,Kazakh Middle Horde,Asia,http://www.wikidata.org/entity/Q4208097,,,,,,
7060,Kazakh Horde of Bukey,Asia,http://www.wikidata.org/entity/Q129799,,,,,,
7070,Kazakh Greater Horde,Asia,http://www.wikidata.org/entity/Q4208097,,,,,,
7100,Spratley Is.,Asia,http://www.wikidata.org/entity/Q215664,,,,,10,114
7101,Ping-nan,Asia,http://www.wikidata.org/entity/Q1355243,,,,,23.54645,110.39351
7102,Jungaria,Asia,http://www.wikidata.org/entity/Q284027,,,,,45,85
7103,Kashgar,Asia,http://www.wikidata.org/entity/Q170521,,,,,39.45,75.983333
7104,Kwangtung Territory,Asia,http://www.wikidata.org/entity/Q678658,,,,,39.16666667,121.75
7105,Weihaiwei,Asia,http://www.wikidata.org/entity/Q373023,,,,,37.5,122.1
7106,Tientsin (Tianjin),Asia,http://www.wikidata.org/entity/Q11736,,,,,39.146666666667,117.20555555556
7107,Anhwei-Fukien,Asia,http://www.wikidata.org/entity/Q40956,,,,,31.833333333333,117
7108,Yangtze Valley,Asia,http://www.wikidata.org/entity/Q5413,,,,,30.575087986509335,113.2915156568973
7109,Yunnan,Asia,http://www.wikidata.org/entity/Q43194,,,,,25.049444444444443,102.7088888888889
7110,Kwanchowan,Asia,http://www.wikidata.org/entity/Q1506615,,,,,21.177277777778,110.41798888889
7111,Manchuria,Asia,http://www.wikidata.org/entity/Q81126,,,,,45,125
7112,Szechwan (Sichuan),Asia,http://www.wikidata.org/entity/Q19770,,,,,30,103
7113,Chinghai (Tsinghai),Asia,http://www.wikidata.org/entity/Q45833,,,,,35,96
7114,Xinjiang (Sinkiang),Asia,http://www.wikidata.org/entity/Q34800,,,,,43.8253,87.61379
7115,Provisional Government of the Republic of China,Asia,http://www.wikidata.org/entity/Q704714,,,,,,
7116,Reformed Government of China,Asia,http://www.wikidata.org/entity/Q708865,,,,,,
7117,Reorganized National Government of the Republic of China,Asia,http://www.wikidata.org/entity/Q696242,,,,,32.05,118.76666666666667
7118,Ningxia,Asia,http://www.wikidata.org/entity/Q57448,,,,,38.46654,106.27056
7119,Inner Mongolia,Asia,http://www.wikidata.org/entity/Q41079,,,,,44,113
7120,Kiauchau,Asia,https://www.wikidata.org/wiki/Q675321,,,,,36.123333,120.245556
7121,Shangai,Asia,https://www.wikidata.org/wiki/Q2170587,,,,,,
7122,Beijing,Asia,https://www.wikidata.org/wiki/Q2663651,,,,,39.90305556,116.40166667
7123,Gulangyu (Kulangsu),Asia,https://www.wikidata.org/wiki/Q11180034,,,,,,
7124,Guangzhou (Canton),Asia,https://www.wikidata.org/wiki/Q529977,,,,,23.109444444444,113.23944444444
7125,Hankou,Asia,https://www.wikidata.org/wiki/Q1208250,,,,,30.581179,114.272597
7126,Kunming,Asia,https://www.wikidata.org/wiki/Q182852,,,,,25.043333333333,102.70611111111
7127,Xiamen (Amoy),Asia,https://www.wikidata.org/wiki/Q68744,,,,,24.479722222222,118.08194444444
7128,Chongqing,Asia,https://www.wikidata.org/wiki/Q11725,,,,,29.55,106.50694444444
7129,Suzhou,Asia,https://www.wikidata.org/wiki/Q42622,,,,,31.3,120.61944444444444
7130,Hangzhou,Asia,https://www.wikidata.org/wiki/Q4970,,,,,30.25,120.1675
7131,"Shashi, Jingzhou",Asia,https://www.wikidata.org/wiki/Q1337497,,,,,30.31363,112.24995
7132,Dalian,Asia,https://www.wikidata.org/wiki/Q74881,,,,,38.9,121.6
7133,Harbin,Asia,https://www.wikidata.org/wiki/Q42956,,,,,45.75,126.63333333333
7134,Lüshun Port (Port Arthur),Asia,https://www.wikidata.org/wiki/Q11085373,,,,,38.78333333333333,121.25
7135,Liugong I.,Asia,https://www.wikidata.org/wiki/Q842587,,,,,37.50611111111111,122.185
7136,Jiujiang,Asia,https://www.wikidata.org/wiki/Q216077,,,,,29.70475,116.00206
7137,Zhenjiang,Asia,https://www.wikidata.org/wiki/Q57958,,,,,32.21086,119.45508
7220,Diaoyu (Senkaku) Is.,Asia,http://www.wikidata.org/entity/Q29460,,,,,25.745,123.485
7301,Port Hamilton (Komundo),Asia,http://www.wikidata.org/entity/Q490697,,,,,34.026388888889,127.3125
7302,Kaesong,Asia,http://www.wikidata.org/entity/Q109079,,,,,37.971666666666664,126.55277777777778
7311,Sinuiju,Asia,http://www.wikidata.org/entity/Q156243,,,,,40.1,124.4
7312,Kumgangsan,Asia,http://www.wikidata.org/entity/Q495501,,,,,38.656763888889,128.10490277778
7330,Korean Demilitarized Zone,Asia,http://www.wikidata.org/entity/Q331990,,,,,38.32,127.2
7351,Southern Sakhalin I.,Asia,http://www.wikidata.org/entity/Q7792,,,,,50.5,143
7352,Vladivostok,Asia,http://www.wikidata.org/entity/Q959,,,,,43.115,131.8852777777778
7360,Tuvan People's Republic,Asia,http://www.wikidata.org/entity/Q816709,,,,,51.698,94.39
7399,Takeshima (Dokdo) I.,Asia,http://www.wikidata.org/entity/Q20317,,,,,37.241666666667,131.86666666667
7411,Bonin Is.,Asia,http://www.wikidata.org/entity/Q243634,,,,,26.998055555556,142.21805555556
7412,Volcano Is.,Asia,http://www.wikidata.org/entity/Q1141683,,,,,24.766666666667,141.3
7413,Marcus I.,Asia,http://www.wikidata.org/entity/Q1047492,,,,,24.286666666667,153.98055555556
7414,Parece Vela I.,Asia,http://www.wikidata.org/entity/Q908529,,,,,20.4225,136.09
7415,Tsushima Is.,Asia,http://www.wikidata.org/entity/Q52051,,,,,34.416666666667,129.33333333333
7500,Andaman and Nicobar Is.,Asia,http://www.wikidata.org/entity/Q40888,,,,,11.68,92.72
7501,Andaman Is.,Asia,http://www.wikidata.org/entity/Q186233,,,,,12.5,92.75
7502,Nicobar Is.,Asia,http://www.wikidata.org/entity/Q157286,,,,,7.8666666666667,93.5
7503,Coromandel Coast Posts,Asia,http://www.wikidata.org/entity/Q182561,,,,,13.37,80.33
7504,Tranquebar and Serampore,Asia,http://www.wikidata.org/entity/Q1815367,,http://www.wikidata.org/entity/Q732594,,,22.75,88.34
7505,Hyderabad,Asia,http://www.wikidata.org/entity/Q1361,http://www.wikidata.org/entity/Q4494730,,,,17.361666666666668,78.47472222222223
7506,Malabar Coast,Asia,https://www.wikidata.org/wiki/Q473181,,,,,12.0167,75.2833
7507,Kashmir,Asia,http://www.wikidata.org/entity/Q2571484,http://www.wikidata.org/entity/Q43100,,,,34.09,74.79
7511,Bikaner,Asia,http://www.wikidata.org/entity/Q859966,,,,,28.01,73.3
7512,Jaipur,Asia,http://www.wikidata.org/entity/Q6124144,,,,,26.985,75.85
7513,Udaipur,Asia,http://www.wikidata.org/entity/Q17319155,,,,,24.58,73.68
7514,Kishangarh,Asia,http://www.wikidata.org/entity/Q6416549,,,,,26.57,74.87
7515,Lawa,Asia,http://www.wikidata.org/entity/Q6503547,,,,,26.36666667,75.55
7516,Jodhpur,Asia,http://www.wikidata.org/entity/Q6207845,,,,,26.4667,73.0333
7517,Jaisalmer,Asia,http://www.wikidata.org/entity/Q1678784,,,,,26.92,70.9
7518,Dholpur,Asia,http://www.wikidata.org/entity/Q1264412,,,,,26.7,77.9
7519,Karauli,Asia,http://www.wikidata.org/entity/Q6368814,,,,,26.3,77.23
7521,Kotah,Asia,http://www.wikidata.org/entity/Q1785349,,,,,25.18,75.83
7522,Banswara,Asia,http://www.wikidata.org/entity/Q806963,,,,,23.55,74.45
7523,Dungarpur,Asia,http://www.wikidata.org/entity/Q973433,,,,,23.83,73.72
7524,Dartabgarh,Asia,,,,,,,
7525,Kushalgar,Asia,http://www.wikidata.org/entity/Q2234705,,,,links to the city,23.17,74.45
7526,Bundi,Asia,http://www.wikidata.org/entity/Q4997536,,,,,25.44,75.64
7527,Tonk,Asia,http://www.wikidata.org/entity/Q914031,,,,,26.166666666667,75.783333333333
7528,Pratapgarh,Asia,http://www.wikidata.org/entity/Q175934,,,,,24.05,74.8
7529,Shahpura,Asia,http://www.wikidata.org/entity/Q2276431,,,,,25.63,74.93
7531,Kathiawar,Asia,http://www.wikidata.org/entity/Q1139314,http://www.wikidata.org/entity/Q21075480,,,,22.302439,70.804825
7532,Holkar (Indore),Asia,http://www.wikidata.org/entity/Q716890,,,,,22.7252,75.8655
7533,Bhopal,Asia,http://www.wikidata.org/entity/Q855044,,,,,23.25,77.4
7534,Dhar,Asia,http://www.wikidata.org/entity/Q1207561,,,,,22.6,75.3
7535,Dewas,Asia,http://www.wikidata.org/entity/Q1207105,http://www.wikidata.org/entity/Q3025563,http://www.wikidata.org/entity/Q3025560,,,22.96,76.06
7536,Taraon,Asia,http://www.wikidata.org/entity/Q18008280,,,,,24.9833,80.95
7537,Samptar (Datia),Asia,http://www.wikidata.org/entity/Q1172600,,,,,25.68333333,78.46666667
7538,Rewa,Asia,http://www.wikidata.org/entity/Q176466,,,,,24.53,81.3
7539,Sawantwadi,Asia,http://www.wikidata.org/entity/Q18164343,,,,,16,73.75
7541,Bilaspur,Asia,http://www.wikidata.org/entity/Q100157,,,,,22.383333333333,82.133333333333
7542,Loharu,Asia,http://www.wikidata.org/entity/Q3258086,,,,,28.45,75.82
7543,Malerkotla,Asia,http://www.wikidata.org/entity/Q11934705,,,,,30.5333,75.9833
7544,Sirmur,Asia,http://www.wikidata.org/entity/Q1541353,,,,,30.55,77.3
7545,Suket,Asia,http://www.wikidata.org/entity/Q3503368,,,,,31.53,76.88
7546,Garwahl,Asia,http://www.wikidata.org/entity/Q1381495,,,,,30.38,78.48
7548,Bagelkhand,Asia,http://www.wikidata.org/entity/Q3628827,,,,,24.53,81.3
7549,Bundelkhand,Asia,http://www.wikidata.org/entity/Q851955,,,,,24.854422,79.921427
7551,Malwa,Asia,http://www.wikidata.org/entity/Q550691,,,,,22.42,75.54
7552,Khairpur,Asia,http://www.wikidata.org/entity/Q2512083,,,,,27.53,68.74
7553,Idar,Asia,http://www.wikidata.org/entity/Q1755548,,,,,23.83,73
7554,Saugor,Asia,http://www.wikidata.org/entity/Q1006355,http://www.wikidata.org/entity/Q2085421,http://www.wikidata.org/entity/Q2345044,,,23.83,78.71
7555,Damoh,Asia,http://www.wikidata.org/entity/Q1192231,,,,,23.84,79.45
7556,Berar,Asia,http://www.wikidata.org/entity/Q17509398,http://www.wikidata.org/entity/Q2983297,,,,20.9167,77.75
7557,Khandesh,Asia,http://www.wikidata.org/entity/Q598803,,,,,21,75
7558,Nasik,Asia,http://www.wikidata.org/entity/Q200235,,,,,20,73.783333333333
7559,Ahmadnagar,Asia,http://www.wikidata.org/entity/Q1708155,,,,,23.6,72.95
7561,Poona,Asia,http://www.wikidata.org/entity/Q1538,,,,,18.519574,73.855287
7562,Sholapur,Asia,http://www.wikidata.org/entity/Q237847,http://www.wikidata.org/entity/Q1797263,,,,17.670277777777777,75.9011111111111
7563,Ratnagiri,Asia,http://www.wikidata.org/entity/Q1922257,http://www.wikidata.org/entity/Q1771768,,,,16.983333333333,73.3
7564,Bijapur,Asia,http://www.wikidata.org/entity/Q3636023,,,,,16.82442,75.71537
7566,Travancore,Asia,http://www.wikidata.org/entity/Q150058,,,,,8.433333333333334,76.91666666666667
7570,Junagadh,Asia,http://www.wikidata.org/entity/Q14491604,,,,,21.52,70.47
7571,Sirohi,Asia,http://www.wikidata.org/entity/Q7530545,,,,,24.88333333,72.86666667
7572,Assam,Asia,http://www.wikidata.org/entity/Q1164,,,,,26,93
7573,Kapurthala,Asia,http://www.wikidata.org/entity/Q1728782,,,,,31.3833,75.3833
7574,Chota Nagpur,Asia,http://www.wikidata.org/entity/Q5105376,,,,,,
7575,Kodagu (Coorg),Asia,http://www.wikidata.org/entity/Q1553185,,,,,12.4208,75.7397
7576,Karnal,Asia,http://www.wikidata.org/entity/Q256194,,,,,29.69,76.988333333333
7577,Sambalpur,Asia,http://www.wikidata.org/entity/Q17315177,,,,,21.47,83.97
7578,Satara,Asia,http://www.wikidata.org/entity/Q581562,,,,,17.683333333333,73.983333333333
7579,Gwalior (Sindhia),Asia,http://www.wikidata.org/entity/Q1557792,,,,,26.22,78.17
7581,Jhansi,Asia,http://www.wikidata.org/entity/Q242995,,,,,25.44862,78.56962
7582,Rampur,Asia,http://www.wikidata.org/entity/Q3454186,,,,,28.8,79
7583,Jubbulpore,Asia,http://www.wikidata.org/entity/Q200878,,,,,23.166666666667,79.933333333333
7584,Balaghat,Asia,http://www.wikidata.org/entity/Q641904,,,,,21.966666666667,80.333333333333
7585,Nagpur,Asia,http://www.wikidata.org/entity/Q1513,http://www.wikidata.org/entity/Q3824858,,,,21.149722222222223,79.08055555555555
7586,Oudh,Asia,http://www.wikidata.org/entity/Q18129046,,,,,26.78,82.13
7587,Manipur,Asia,http://www.wikidata.org/entity/Q889030,,,,,24.8167,93.95
7588,Baluchistan (Kalat),Asia,http://www.wikidata.org/entity/Q139948,,,,,29.02583333,66.59
7589,Maratha Empire,Asia,http://www.wikidata.org/entity/Q83618,,,,,,
7591,Goa,Asia,https://www.wikidata.org/wiki/Q1171,,,,,15.401944444444444,74.04333333333334
7592,Diu,Asia,https://www.wikidata.org/wiki/Q5283744,,,,,20.71,70.98
7593,Daman,Asia,https://www.wikidata.org/wiki/Q1158197,,,,,20.42,72.83
7594,Dadra,Asia,https://www.wikidata.org/wiki/Q46107,,,,,20.27,73.02
7595,Nagar Haveli,Asia,https://www.wikidata.org/wiki/Q46107,,,,,20.27,73.02
7691,Lahore (Sikh Empire),Asia,http://www.wikidata.org/entity/Q11739,https://www.wikidata.org/wiki/Q83572,,,,31.549722222222,74.343611111111
7692,Peshawar,Asia,http://www.wikidata.org/entity/Q1113311,,,,,34.01444444444444,71.5675
7693,Sindh,Asia,http://www.wikidata.org/entity/Q37211,,,,,24.87,67.05
7694,Bahawalpur,Asia,http://www.wikidata.org/entity/Q800236,,,,,28.8333,71.7167
7701,Swat,Asia,http://www.wikidata.org/entity/Q3246260,http://www.wikidata.org/entity/Q389161,,,,,
7702,Hunza,Asia,http://www.wikidata.org/entity/Q14957246,,,,,36.333,74.666
7703,Nagar,Asia,http://www.wikidata.org/entity/Q372426,,,,,35.4,73.8
7704,Chitral,Asia,http://www.wikidata.org/entity/Q11317232,,,,,35.83777778,71.78388889
7705,Dir,Asia,http://www.wikidata.org/entity/Q3243592,http://www.wikidata.org/entity/Q3406890,,,,,
7706,Amb,Asia,http://www.wikidata.org/entity/Q2841472,,,,,34.364606,72.859433
7707,Gwadar,Asia,http://www.wikidata.org/entity/Q580533,,,,,25.126388888889,62.3225
7708,Azad Kashmir,Asia,http://www.wikidata.org/entity/Q200130,,,,,33.938083333333,73.764555555556
7709,Gilgit Baltistan (Northern Areas),Asia,http://www.wikidata.org/entity/Q200697,,,,,35.35,75.9
7712,Tin Bigha,Asia,http://www.wikidata.org/entity/Q4233073,,,,,26.3008,88.9836
7746,Bawlake,Asia,http://www.wikidata.org/entity/Q7987998,,,,,,
7747,Kyebogyi,Asia,http://www.wikidata.org/entity/Q7987998,,,,,,
7748,Naungpale,Asia,http://www.wikidata.org/entity/Q7987998,,,,,,
7749,Nammekon,Asia,http://www.wikidata.org/entity/Q7987998,http://www.wikidata.org/entity/Q12901160,,,,,
7750,Hsenwi,Asia,http://www.wikidata.org/entity/Q783492,,,,,22.9333,97.75
7751,Hsipaw,Asia,http://www.wikidata.org/entity/Q18125758,,,,,27.6167,97.2833
7752,Tawngpeng,Asia,http://www.wikidata.org/entity/Q784604,,,,,22.95,97.15
7753,North Hsenwi,Asia,http://www.wikidata.org/entity/Q18128805,,,,,22.9333,97.75
7754,South Hsenwi,Asia,http://www.wikidata.org/entity/Q11028231,,,,,22.4,98.0333
7755,Mang Lon,Asia,http://www.wikidata.org/entity/Q6745355,,,,,22.1667,99.1833
7756,Hsamonghkam,Asia,http://www.wikidata.org/entity/Q5924152,http://www.wikidata.org/entity/Q4821924,,,,20.661944444444444,96.64
7757,Kyawkku,Asia,http://www.wikidata.org/entity/Q25248195,,,,,21.8,96.91666667
7758,Kyong,Asia,http://www.wikidata.org/entity/Q6452045,,,,,20.789166666666667,96.64944444444446
7759,Loi Ai,Asia,http://www.wikidata.org/entity/Q6668062,,,,,20.65,96.6167
7760,Loi Long,Asia,http://www.wikidata.org/entity/Q769533,http://www.wikidata.org/entity/Q7196260,,,,20.095,96.789722
7761,Loi Maw,Asia,,,,,,,
7762,Maw,Asia,http://www.wikidata.org/entity/Q6746014,,,,,21.45,96.3667
7763,Mawnang,Asia,http://www.wikidata.org/entity/Q16937734,,,,,20.72333333,96.77111111
7764,Mawson,Asia,http://www.wikidata.org/entity/Q6794457,,,,,,
7765,Namhkam,Asia,http://www.wikidata.org/entity/Q11938356,http://www.wikidata.org/entity/Q6963579,,,,20.598888888888887,96.06194444444444
7766,Namtok,Asia,http://www.wikidata.org/entity/Q775848,,,,,20.38305556,98.04
7767,Pangmi,Asia,http://www.wikidata.org/entity/Q642143,,,,,20.585067330237045,96.69231594283754
7768,Pangtara,Asia,http://www.wikidata.org/entity/Q25182697,,,,,20.95,96.66666667
7769,Pwehla,Asia,http://www.wikidata.org/entity/Q7207854,,,,,20.84472222222222,96.68305555555555
7770,Yengan,Asia,http://www.wikidata.org/entity/Q11955494,,,,,21.16638888888889,96.44444444444444
7771,Yawnghwe,Asia,http://www.wikidata.org/entity/Q18750170,,,,,20.663333333333334,96.935
7772,Lawksawk,Asia,http://www.wikidata.org/entity/Q18164160,,,,,21.23333333,96.86666667
7773,Wanyin,Asia,http://www.wikidata.org/entity/Q675039,,,,,20.465555555555554,97.22694444444444
7774,Samka,Asia,http://www.wikidata.org/entity/Q7409604,,,,,31.57686,96.74038
7775,Hsahtung,Asia,http://www.wikidata.org/entity/Q5924160,http://www.wikidata.org/entity/Q5924170,,,,20.16120185381747,97.25241416916084
7776,Hopong,Asia,http://www.wikidata.org/entity/Q18125697,http://www.wikidata.org/entity/Q5901153,,,,20.797777777777778,97.17611111111111
7777,Namhkok,Asia,http://www.wikidata.org/entity/Q6746736,,,,,20.62455,97.204242
7778,Mong Pai,Asia,http://www.wikidata.org/entity/Q6746318,,,,,19.25,97.33333333
7779,Nawng Wawn,Asia,http://www.wikidata.org/entity/Q6746031,,,,,,
7780,Sa-koi,Asia,http://www.wikidata.org/entity/Q6745279,,,,,19.90497222222222,97.03322222222222
7781,Lai Hka,Asia,http://www.wikidata.org/entity/Q636410,,,,,21.2667,97.65
7782,Mong Kung,Asia,http://www.wikidata.org/entity/Q675065,,,,,21.6,97.5167
